{
  "8fca4b63-4f3b-47b6-9f24-013b7d72bd2c": {
    "mission": {
      "type": "Government/Top Secret",
      "orbit": {
        "abbrev": "LEO",
        "name": "Low Earth Orbit"
      },
      "description": "High-resolution film-return Zenit reconnaissance satellite"
    },
    "rocket_full_name": "Soyuz U",
    "pad_lat": 62.9273,
    "pad_lon": 40.45,
    "mission_patches": [],
    "vid_urls": []
  },
  "143904a9-06fb-4bc4-a4ad-2af2049a29d5": {
    "mission": {
      "type": "Communications",
      "orbit": {
        "abbrev": "Direct-GEO",
        "name": "Geostationary Orbit"
      },
      "description": "Geostationary communications satellite"
    },
    "rocket_full_name": "Proton-K/DM",
    "pad_lat": 46.0336111,
    "pad_lon": 63.0266949,
    "mission_patches": [],
    "vid_urls": []
  },
  "3db5d8e4-2f56-47a6-bc14-0328c2f71aef": {
    "mission": {
      "type": "Test Flight",
      "orbit": {
        "abbrev": "Elliptical",
        "name": "Elliptical Orbit"
      },
      "description": "Vehicle evaluation payload for the Ariane 1 launch vehicle"
    },
    "rocket_full_name": "Ariane 1",
    "pad_lat": 5.236,
    "pad_lon": -52.775,
    "mission_patches": [],
    "vid_urls": []
  },
  "e02a5b5c-4a20-4b6a-afde-ae67cc928413": {
    "mission": {
      "type": "Test Flight",
      "orbit": {
        "abbrev": "LEO",
        "name": "Low Earth Orbit"
      },
      "description": "Test flight of the Soyuz T spacecraft which docked to Salyut 6"
    },
    "rocket_full_name": "Soyuz U",
    "pad_lat": 45.996034,
    "pad_lon": 63.564003,
    "mission_patches": [],
    "vid_urls": []
  },
  "437369e2-6052-4141-93bb-0a19669a064f": {
    "mission": {
      "type": "Government/Top Secret",
      "orbit": {
        "abbrev": "LEO",
        "name": "Low Earth Orbit"
      },
      "description": "Optical film-return reconnaissance satellite"
    },
    "rocket_full_name": "Soyuz U",
    "pad_lat": 62.9273,
    "pad_lon": 40.45,
    "mission_patches": [],
    "vid_urls": []
  },
  "14910191-65b7-4348-a6fa-dbc916057f00": {
    "mission": {
      "type": "Communications",
      "orbit": {
        "abbrev": "Direct-GEO",
        "name": "Geostationary Orbit"
      },
      "description": "First generation geostationary communication satellite built for RCA Americom"
    },
    "rocket_full_name": "Delta 3914",
    "pad_lat": 28.4472,
    "pad_lon": -80.565,
    "mission_patches": [],
    "vid_urls": []
  },
  "298b631d-8d10-4194-8125-97ffa9a255ae": {
    "mission": {
      "type": "Test Target",
      "orbit": {
        "abbrev": "LEO",
        "name": "Low Earth Orbit"
      },
      "description": "Passive radar calibration satellite"
    },
    "rocket_full_name": "Kosmos-3M (11K65M)",
    "pad_lat": 62.883,
    "pad_lon": 40.869806,
    "mission_patches": [],
    "vid_urls": []
  },
  "96c2337f-4425-49aa-accf-22dd539c0a69": {
    "mission": {
      "type": "Government/Top Secret",
      "orbit": {
        "abbrev": "LEO",
        "name": "Low Earth Orbit"
      },
      "description": "Tselina-D satellites provided detailed observation of radio sources detected by the smaller Tselina-O satellites as part of the Tselina ELINT system."
    },
    "rocket_full_name": "Vostok 8A92M",
    "pad_lat": 62.92883,
    "pad_lon": 40.457098,
    "mission_patches": [],
    "vid_urls": []
  },
  "5bcc6d78-e719-4430-8c84-334956a6ab50": {
    "mission": {
      "type": "Government/Top Secret",
      "orbit": {
        "abbrev": "Direct-GEO",
        "name": "Geostationary Orbit"
      },
      "description": "Satellites designed to provide secure voice and data communications for the US military."
    },
    "rocket_full_name": "Titan IIIC",
    "pad_lat": 28.56194122,
    "pad_lon": -80.57735736,
    "mission_patches": [],
    "vid_urls": []
  },
  "45813f81-27e1-4d60-a920-8abaf1fa92fb": {
    "mission": {
      "type": "Government/Top Secret",
      "orbit": {
        "abbrev": "LEO",
        "name": "Low Earth Orbit"
      },
      "description": "High-resolution film-return Yantar reconnaissance satellite"
    },
    "rocket_full_name": "Soyuz U",
    "pad_lat": 62.9273,
    "pad_lon": 40.45,
    "mission_patches": [],
    "vid_urls": []
  },
  "d2ba48b7-0b8e-4719-ba85-e850e3eb0e88": {
    "mission": {
      "type": "Earth Science",
      "orbit": {
        "abbrev": "LEO",
        "name": "Low Earth Orbit"
      },
      "description": "Ocean and Earth surface study satellite"
    },
    "rocket_full_name": "Kosmos-3M (11K65M)",
    "pad_lat": 62.883,
    "pad_lon": 40.869806,
    "mission_patches": [],
    "vid_urls": []
  },
  "e3156972-ded8-4f1e-9ecd-aa0040924d25": {
    "mission": {
      "type": "Earth Science",
      "orbit": {
        "abbrev": "LEO",
        "name": "Low Earth Orbit"
      },
      "description": "Second generation soviet meteorological satellite"
    },
    "rocket_full_name": "Vostok 8A92M",
    "pad_lat": 62.92883,
    "pad_lon": 40.457098,
    "mission_patches": [],
    "vid_urls": []
  },
  "3924d23c-eaab-4274-8619-938842638808": {
    "mission": {
      "type": "Earth Science",
      "orbit": {
        "abbrev": "LEO",
        "name": "Low Earth Orbit"
      },
      "description": "Scientific satellite dedicated to near-earth magnetic fields measurements"
    },
    "rocket_full_name": "Scout G-1",
    "pad_lat": 34.608,
    "pad_lon": -120.6247,
    "mission_patches": [],
    "vid_urls": []
  },
  "1abd1919-81ef-4052-b1f0-0d67a8b6df75": {
    "mission": {
      "type": "Government/Top Secret",
      "orbit": {
        "abbrev": "LEO",
        "name": "Low Earth Orbit"
      },
      "description": "Tselina-D satellites provided detailed observation of radio sources detected by the smaller Tselina-O satellites as part of the Tselina ELINT system."
    },
    "rocket_full_name": "Vostok 8A92M",
    "pad_lat": 62.92883,
    "pad_lon": 40.457098,
    "mission_patches": [],
    "vid_urls": []
  },
  "6ebd76ba-8786-4dfe-b83f-7b6f3f2e0630": {
    "mission": {
      "type": "Government/Top Secret",
      "orbit": {
        "abbrev": "LEO",
        "name": "Low Earth Orbit"
      },
      "description": "Optical film-return reconnaissance satellite"
    },
    "rocket_full_name": "Soyuz U",
    "pad_lat": 62.9273,
    "pad_lon": 40.45,
    "mission_patches": [],
    "vid_urls": []
  },
  "edcdc7e0-3c28-4ab9-87e2-8c07e4e5de56": {
    "mission": {
      "type": "Government/Top Secret",
      "orbit": {
        "abbrev": "Elliptical",
        "name": "Elliptical Orbit"
      },
      "description": "Military communications satellite in a highly elliptic orbit"
    },
    "rocket_full_name": "Molniya-M 2BL",
    "pad_lat": 62.941,
    "pad_lon": 40.526806,
    "mission_patches": [],
    "vid_urls": []
  },
  "f9ae7c9e-5730-4e90-b7cb-7a1af226c16e": {
    "mission": {
      "type": "Navigation",
      "orbit": {
        "abbrev": "LEO",
        "name": "Low Earth Orbit"
      },
      "description": "Navigation satellite providing location information for the Tsiklon-B navigation system"
    },
    "rocket_full_name": "Kosmos-3M (11K65M)",
    "pad_lat": 62.883,
    "pad_lon": 40.869806,
    "mission_patches": [],
    "vid_urls": []
  },
  "72d5eb54-fff3-437a-8b74-538eb819236c": {
    "mission": {
      "type": "Government/Top Secret",
      "orbit": {
        "abbrev": "LEO",
        "name": "Low Earth Orbit"
      },
      "description": "Optical film-return reconnaissance satellite"
    },
    "rocket_full_name": "Soyuz U",
    "pad_lat": 62.9273,
    "pad_lon": 40.45,
    "mission_patches": [],
    "vid_urls": []
  },
  "341309a6-cdf5-400e-9aeb-e1024d4cdec0": {
    "mission": {
      "type": "Government/Top Secret",
      "orbit": {
        "abbrev": "LEO",
        "name": "Low Earth Orbit"
      },
      "description": "Military communications satellite"
    },
    "rocket_full_name": "Kosmos-3M (11K65M)",
    "pad_lat": 62.883,
    "pad_lon": 40.869806,
    "mission_patches": [],
    "vid_urls": []
  },
  "7d92f0c8-04f3-451d-ad25-a8e90b1b54ee": {
    "mission": {
      "type": "Government/Top Secret",
      "orbit": {
        "abbrev": "LEO",
        "name": "Low Earth Orbit"
      },
      "description": "Film-return reconnaissance satellite"
    },
    "rocket_full_name": "Soyuz U",
    "pad_lat": 62.941,
    "pad_lon": 40.526806,
    "mission_patches": [],
    "vid_urls": []
  },
  "23992957-afa4-403b-a13d-56bc43788fdf": {
    "mission": {
      "type": "Communications",
      "orbit": {
        "abbrev": "Direct-GEO",
        "name": "Geostationary Orbit"
      },
      "description": "Ekran was a Soviet series of geostationary satellites which were the first in the world to provide Direct-To-Home TV service."
    },
    "rocket_full_name": "Proton-K/DM",
    "pad_lat": 46.0336111,
    "pad_lon": 63.0266949,
    "mission_patches": [],
    "vid_urls": []
  },
  "5c63bbf4-0cd7-4a56-9517-364cccb2c6f5": {
    "mission": {
      "type": "Government/Top Secret",
      "orbit": {
        "abbrev": "MEO",
        "name": "Medium Earth Orbit"
      },
      "description": "ELINT satellite focussed on communications intelligence"
    },
    "rocket_full_name": "Titan IIIC",
    "pad_lat": 28.56194122,
    "pad_lon": -80.57735736,
    "mission_patches": [],
    "vid_urls": []
  },
  "55a2c874-ce4a-4109-9ca2-16f97c04e36a": {
    "mission": {
      "type": "Government/Top Secret",
      "orbit": {
        "abbrev": "LEO",
        "name": "Low Earth Orbit"
      },
      "description": "Optical film-return reconnaissance satellite"
    },
    "rocket_full_name": "Soyuz U",
    "pad_lat": 62.9273,
    "pad_lon": 40.45,
    "mission_patches": [],
    "vid_urls": []
  },
  "9296bc36-506e-4b8d-bdb4-b52baaec4aed": {
    "mission": {
      "type": "Government/Top Secret",
      "orbit": {
        "abbrev": "LEO",
        "name": "Low Earth Orbit"
      },
      "description": "Military communications satellites"
    },
    "rocket_full_name": "Kosmos-3M (11K65M)",
    "pad_lat": 62.883,
    "pad_lon": 40.869806,
    "mission_patches": [],
    "vid_urls": []
  },
  "54889ff4-2c41-4bde-acbc-e1f167b883eb": {
    "mission": {
      "type": "Biology",
      "orbit": {
        "abbrev": "LEO",
        "name": "Low Earth Orbit"
      },
      "description": "Biological research satellite carrying live organisms"
    },
    "rocket_full_name": "Soyuz U",
    "pad_lat": 62.941,
    "pad_lon": 40.526806,
    "mission_patches": [],
    "vid_urls": []
  },
  "715b185e-39f0-49c1-aee2-b44d642c2151": {
    "mission": {
      "type": "Astrophysics",
      "orbit": {
        "abbrev": "LEO",
        "name": "Low Earth Orbit"
      },
      "description": "Astronomy satellite dedicated to gamma and cosmic rays"
    },
    "rocket_full_name": "Atlas SLV-3D Centaur",
    "pad_lat": 28.4705556,
    "pad_lon": -80.542194,
    "mission_patches": [],
    "vid_urls": []
  },
  "f51cfb58-aa70-46fd-983e-f4d8806ddfdb": {
    "mission": {
      "type": "Government/Top Secret",
      "orbit": {
        "abbrev": "LEO",
        "name": "Low Earth Orbit"
      },
      "description": "High-resolution film-return Zenit reconnaissance satellite"
    },
    "rocket_full_name": "Soyuz U",
    "pad_lat": 62.92883,
    "pad_lon": 40.457098,
    "mission_patches": [],
    "vid_urls": []
  },
  "ef250266-3ad2-4c7e-9625-80b68efacd01": {
    "mission": {
      "type": "Earth Science",
      "orbit": {
        "abbrev": "SSO",
        "name": "Sun-Synchronous Orbit"
      },
      "description": "Resurs-F1 (17F41) type film-return Earth observation satellite"
    },
    "rocket_full_name": "Soyuz U",
    "pad_lat": 62.941,
    "pad_lon": 40.526806,
    "mission_patches": [],
    "vid_urls": []
  },
  "95e5a27b-e99f-4ed6-9fe5-8c783154329d": {
    "mission": {
      "type": "Government/Top Secret",
      "orbit": {
        "abbrev": "LEO",
        "name": "Low Earth Orbit"
      },
      "description": "Optical film-return reconnaissance satellite"
    },
    "rocket_full_name": "Soyuz U",
    "pad_lat": 62.92883,
    "pad_lon": 40.457098,
    "mission_patches": [],
    "vid_urls": []
  },
  "5046e960-2a04-4022-b920-f226d7d61093": {
    "mission": {
      "type": "Government/Top Secret",
      "orbit": {
        "abbrev": "LEO",
        "name": "Low Earth Orbit"
      },
      "description": "Military communications satellite"
    },
    "rocket_full_name": "Kosmos-3M (11K65M)",
    "pad_lat": 62.883229,
    "pad_lon": 40.868549,
    "mission_patches": [],
    "vid_urls": []
  },
  "17dd341a-bd37-4ea4-b845-2c8cdadd429e": {
    "mission": {
      "type": "Government/Top Secret",
      "orbit": {
        "abbrev": "Elliptical",
        "name": "Elliptical Orbit"
      },
      "description": "Early warning satellite"
    },
    "rocket_full_name": "Molniya-M 2BL",
    "pad_lat": 62.92883,
    "pad_lon": 40.457098,
    "mission_patches": [],
    "vid_urls": []
  },
  "13aefcdb-31fe-4346-ab87-e0d6538b04c6": {
    "mission": {
      "type": "Government/Top Secret",
      "orbit": {
        "abbrev": "LEO",
        "name": "Low Earth Orbit"
      },
      "description": "Film-return reconnaissance satellite"
    },
    "rocket_full_name": "Soyuz U",
    "pad_lat": 62.941,
    "pad_lon": 40.526806,
    "mission_patches": [],
    "vid_urls": []
  },
  "46a90cc8-32cc-4320-ab2c-49844676d0a2": {
    "mission": {
      "type": "Earth Science",
      "orbit": {
        "abbrev": "LEO",
        "name": "Low Earth Orbit"
      },
      "description": "Civil version of the military Zenit-2M area surveillance reconnaissance satellite"
    },
    "rocket_full_name": "Soyuz U",
    "pad_lat": 62.92883,
    "pad_lon": 40.457098,
    "mission_patches": [],
    "vid_urls": []
  },
  "95086895-89a0-4949-891a-f3846367a4dd": {
    "mission": {
      "type": "Government/Top Secret",
      "orbit": {
        "abbrev": "LEO",
        "name": "Low Earth Orbit"
      },
      "description": "High-resolution film-return Yantar reconnaissance satellite"
    },
    "rocket_full_name": "Soyuz U",
    "pad_lat": 62.9273,
    "pad_lon": 40.45,
    "mission_patches": [],
    "vid_urls": []
  },
  "74b84708-b232-4b8d-855a-ebe2fb94c922": {
    "mission": {
      "type": "Government/Top Secret",
      "orbit": {
        "abbrev": "LEO",
        "name": "Low Earth Orbit"
      },
      "description": "High-resolution film-return Zenit reconnaissance satellite"
    },
    "rocket_full_name": "Soyuz U",
    "pad_lat": 45.996034,
    "pad_lon": 63.564003,
    "mission_patches": [],
    "vid_urls": []
  },
  "82ebe308-e379-4d79-9404-ee8edc2e1124": {
    "mission": {
      "type": "Test Flight",
      "orbit": {
        "abbrev": "LEO",
        "name": "Low Earth Orbit"
      },
      "description": "Indian small satellite used to evaluate the launch vehicle performance of the SLV-3 rocket"
    },
    "rocket_full_name": "SLV-3",
    "pad_lat": 13.666193,
    "pad_lon": 80.227231,
    "mission_patches": [],
    "vid_urls": []
  },
  "ac1a2581-cf9d-4665-8a1a-fc3d03489d6e": {
    "mission": {
      "type": "Communications",
      "orbit": {
        "abbrev": "Direct-GEO",
        "name": "Geostationary Orbit"
      },
      "description": "Geostationary communications satellite developed by Hughes Aircraft Company"
    },
    "rocket_full_name": "Delta 2914",
    "pad_lat": 28.4472,
    "pad_lon": -80.565,
    "mission_patches": [],
    "vid_urls": []
  },
  "45a05cda-16dc-4a9d-b722-a14726530b7c": {
    "mission": {
      "type": "Government/Top Secret",
      "orbit": {
        "abbrev": "LEO",
        "name": "Low Earth Orbit"
      },
      "description": "Film-return reconnaissance satellite"
    },
    "rocket_full_name": "Soyuz U",
    "pad_lat": 62.9273,
    "pad_lon": 40.45,
    "mission_patches": [],
    "vid_urls": []
  },
  "e47c371f-37cd-4c0b-9a7d-b0a5707ae32e": {
    "mission": {
      "type": "Government/Top Secret",
      "orbit": {
        "abbrev": "Elliptical",
        "name": "Elliptical Orbit"
      },
      "description": "Military communications satellite in a highly elliptic orbit"
    },
    "rocket_full_name": "Molniya-M 2BL",
    "pad_lat": 62.9273,
    "pad_lon": 40.45,
    "mission_patches": [],
    "vid_urls": []
  },
  "962c04a2-bc8a-4fd7-9ffd-a2273bbd710c": {
    "mission": {
      "type": "Astrophysics",
      "orbit": {
        "abbrev": "LEO",
        "name": "Low Earth Orbit"
      },
      "description": "Chinese micrometeoroids and debris research satellite"
    },
    "rocket_full_name": "Feng Bao 1",
    "pad_lat": 41.306143,
    "pad_lon": 100.313229,
    "mission_patches": [],
    "vid_urls": []
  },
  "60581ef3-0d5d-46c4-ac1a-1dd43401c1c8": {
    "mission": {
      "type": "Earth Science",
      "orbit": {
        "abbrev": "LEO",
        "name": "Low Earth Orbit"
      },
      "description": "Civil version of the military Zenit-2M area surveillance reconnaissance satellite"
    },
    "rocket_full_name": "Soyuz U",
    "pad_lat": 62.92883,
    "pad_lon": 40.457098,
    "mission_patches": [],
    "vid_urls": []
  },
  "745a179b-9e4d-4a9b-a972-9de68b24a7dd": {
    "mission": {
      "type": "Government/Top Secret",
      "orbit": {
        "abbrev": "LEO",
        "name": "Low Earth Orbit"
      },
      "description": "High-resolution film-return Zenit reconnaissance satellite"
    },
    "rocket_full_name": "Soyuz U",
    "pad_lat": 62.9273,
    "pad_lon": 40.45,
    "mission_patches": [],
    "vid_urls": []
  },
  "379a8ab5-0418-422c-918b-e55d877ee6e0": {
    "mission": {
      "type": "Government/Top Secret",
      "orbit": {
        "abbrev": "LEO",
        "name": "Low Earth Orbit"
      },
      "description": "Tselina-D satellites provided detailed observation of radio sources detected by the smaller Tselina-O satellites as part of the Tselina ELINT system."
    },
    "rocket_full_name": "Vostok 8A92M",
    "pad_lat": 62.92883,
    "pad_lon": 40.457098,
    "mission_patches": [],
    "vid_urls": []
  },
  "66e7dc78-98eb-4b88-8d39-01de282dfcbb": {
    "mission": {
      "type": "Government/Top Secret",
      "orbit": {
        "abbrev": "LEO",
        "name": "Low Earth Orbit"
      },
      "description": "Film-return reconnaissance satellite"
    },
    "rocket_full_name": "Soyuz U",
    "pad_lat": 62.92883,
    "pad_lon": 40.457098,
    "mission_patches": [],
    "vid_urls": []
  },
  "8ad7e256-a03a-4720-acd1-d94f3719990a": {
    "mission": {
      "type": "Government/Top Secret",
      "orbit": {
        "abbrev": "LEO",
        "name": "Low Earth Orbit"
      },
      "description": "The Tselina-O (11F616) was one component of two-satellite Tselina ELINT satellite system. Tselina-O provided general ELINT surveillance to be examined in detail by the larger Tselina-D satellites."
    },
    "rocket_full_name": "Kosmos-3M (11K65M)",
    "pad_lat": 62.883229,
    "pad_lon": 40.868549,
    "mission_patches": [],
    "vid_urls": []
  },
  "357e51d0-84df-43f6-8a35-e449d686d308": {
    "mission": {
      "type": "Government/Top Secret",
      "orbit": {
        "abbrev": "LEO",
        "name": "Low Earth Orbit"
      },
      "description": "High-resolution film-return Zenit reconnaissance satellite"
    },
    "rocket_full_name": "Soyuz U",
    "pad_lat": 45.996034,
    "pad_lon": 63.564003,
    "mission_patches": [],
    "vid_urls": []
  },
  "4f7c85e4-35a7-4c6f-a16f-733004abe29a": {
    "mission": {
      "type": "Test Target",
      "orbit": {
        "abbrev": "LEO",
        "name": "Low Earth Orbit"
      },
      "description": "Taifun-2 satellite used to release up to 24 subsatellites for radar and sensor calibration"
    },
    "rocket_full_name": "Kosmos-3M (11K65M)",
    "pad_lat": 48.540716,
    "pad_lon": 46.296826,
    "mission_patches": [],
    "vid_urls": []
  },
  "315905f1-a296-4b0a-b9d7-b3aeac2aa6a9": {
    "mission": {
      "type": "Communications",
      "orbit": {
        "abbrev": "Direct-GEO",
        "name": "Geostationary Orbit"
      },
      "description": "Geostationary communications satellite"
    },
    "rocket_full_name": "Proton-K/DM",
    "pad_lat": 46.0336111,
    "pad_lon": 63.0266949,
    "mission_patches": [],
    "vid_urls": []
  },
  "910bee4e-2e3c-4c49-8c21-19f7734502f8": {
    "mission": {
      "type": "Government/Top Secret",
      "orbit": {
        "abbrev": "LEO",
        "name": "Low Earth Orbit"
      },
      "description": "Optical film-return reconnaissance satellite"
    },
    "rocket_full_name": "Soyuz U",
    "pad_lat": 62.9273,
    "pad_lon": 40.45,
    "mission_patches": [],
    "vid_urls": []
  },
  "56ef7e8b-878c-4827-b041-3afa9a643249": {
    "mission": {
      "type": "Government/Top Secret",
      "orbit": {
        "abbrev": "LEO",
        "name": "Low Earth Orbit"
      },
      "description": "Military communications satellite"
    },
    "rocket_full_name": "Kosmos-3M (11K65M)",
    "pad_lat": 62.883229,
    "pad_lon": 40.868549,
    "mission_patches": [],
    "vid_urls": []
  },
  "498bf21b-9e35-4b81-906e-6e8b25f7155b": {
    "mission": null,
    "rocket_full_name": "Soyuz U",
    "pad_lat": 45.996034,
    "pad_lon": 63.564003,
    "mission_patches": [],
    "vid_urls": []
  },
  "4c088614-5feb-4b73-90d1-8ff62aace4b1": {
    "mission": {
      "type": "Government/Top Secret",
      "orbit": {
        "abbrev": "Elliptical",
        "name": "Elliptical Orbit"
      },
      "description": "Early warning satellite"
    },
    "rocket_full_name": "Molniya-M 2BL",
    "pad_lat": 62.941,
    "pad_lon": 40.526806,
    "mission_patches": [],
    "vid_urls": []
  },
  "0b739409-b1ec-4718-9ad4-a0adb0924385": {
    "mission": {
      "type": "Earth Science",
      "orbit": {
        "abbrev": "SSO",
        "name": "Sun-Synchronous Orbit"
      },
      "description": "Third generation LEO meteorological satellite"
    },
    "rocket_full_name": "SM-65F Atlas",
    "pad_lat": 34.644,
    "pad_lon": -120.593,
    "mission_patches": [],
    "vid_urls": []
  },
  "d2b029ce-504c-4acd-9738-0b6e5c4a89e6": {
    "mission": {
      "type": "Government/Top Secret",
      "orbit": {
        "abbrev": "LEO",
        "name": "Low Earth Orbit"
      },
      "description": "Film-return reconnaissance satellite"
    },
    "rocket_full_name": "Soyuz U",
    "pad_lat": 62.92883,
    "pad_lon": 40.457098,
    "mission_patches": [],
    "vid_urls": []
  },
  "e011b79c-9112-4c24-9cb7-864cc310ec10": {
    "mission": {
      "type": "Government/Top Secret",
      "orbit": {
        "abbrev": "LEO",
        "name": "Low Earth Orbit"
      },
      "description": "Optical film-return reconnaissance satellite"
    },
    "rocket_full_name": "Soyuz U",
    "pad_lat": 62.9273,
    "pad_lon": 40.45,
    "mission_patches": [],
    "vid_urls": []
  },
  "bd2ce47e-d5db-4db7-b3f3-b3de7c825b0f": {
    "mission": {
      "type": "Earth Science",
      "orbit": {
        "abbrev": "LEO",
        "name": "Low Earth Orbit"
      },
      "description": "Civil version of the military Zenit-2M area surveillance reconnaissance satellite"
    },
    "rocket_full_name": "Soyuz U",
    "pad_lat": 62.92883,
    "pad_lon": 40.457098,
    "mission_patches": [],
    "vid_urls": []
  },
  "c7fce96c-ee24-4727-b41f-9f5d3a8ffe09": {
    "mission": {
      "type": "Government/Top Secret",
      "orbit": {
        "abbrev": "Direct-GEO",
        "name": "Geostationary Orbit"
      },
      "description": "American early warning satellite"
    },
    "rocket_full_name": "Titan IIIC",
    "pad_lat": 28.56194122,
    "pad_lon": -80.57735736,
    "mission_patches": [],
    "vid_urls": []
  },
  "9912f954-a2a6-46d9-8647-5c9f50f6dd57": {
    "mission": {
      "type": "Government/Top Secret",
      "orbit": {
        "abbrev": "LEO",
        "name": "Low Earth Orbit"
      },
      "description": "Film-return reconnaissance satellite"
    },
    "rocket_full_name": "Soyuz U",
    "pad_lat": 62.941,
    "pad_lon": 40.526806,
    "mission_patches": [],
    "vid_urls": []
  },
  "941b798a-62a4-4859-a013-fc3efd32916d": {
    "mission": {
      "type": "Earth Science",
      "orbit": {
        "abbrev": "LEO",
        "name": "Low Earth Orbit"
      },
      "description": "Indian Earth observation satellite"
    },
    "rocket_full_name": "Kosmos-3M (11K65M)",
    "pad_lat": 48.540716,
    "pad_lon": 46.296826,
    "mission_patches": [],
    "vid_urls": []
  },
  "01c4cc7a-fb19-487e-b46f-6069a65d55cc": {
    "mission": {
      "type": "Government/Top Secret",
      "orbit": {
        "abbrev": "SSO",
        "name": "Sun-Synchronous Orbit"
      },
      "description": "Military meteorological satellite"
    },
    "rocket_full_name": "Thor DSV-2U",
    "pad_lat": 34.7652778,
    "pad_lon": -120.6244162,
    "mission_patches": [],
    "vid_urls": []
  },
  "a058d7ff-5f15-45dc-9dae-b5b72e70ee31": {
    "mission": {
      "type": "Human Exploration",
      "orbit": {
        "abbrev": "LEO",
        "name": "Low Earth Orbit"
      },
      "description": "Uncrewed Soyuz spacecraft sent to Salyut 6 to return the Soyuz 33 crew to Earth"
    },
    "rocket_full_name": "Soyuz U",
    "pad_lat": 45.996034,
    "pad_lon": 63.564003,
    "mission_patches": [],
    "vid_urls": []
  },
  "39912c7d-951b-456a-beae-555d8a918d62": {
    "mission": {
      "type": "Communications",
      "orbit": {
        "abbrev": "Elliptical",
        "name": "Elliptical Orbit"
      },
      "description": "Molniya communication satellites operating from a highly elliptical orbit"
    },
    "rocket_full_name": "Molniya-M 2BL",
    "pad_lat": 62.92883,
    "pad_lon": 40.457098,
    "mission_patches": [],
    "vid_urls": []
  },
  "9afd4292-105f-427e-9693-157cdc8ca096": {
    "mission": {
      "type": "Astrophysics",
      "orbit": {
        "abbrev": "LEO",
        "name": "Low Earth Orbit"
      },
      "description": "Ariel is a series of British research satellites. Ariel 6 primary experiment was a cosmic ray detector. Satellite also carried X-ray telescopes."
    },
    "rocket_full_name": "Scout D-1",
    "pad_lat": 37.8495,
    "pad_lon": -75.4725,
    "mission_patches": [],
    "vid_urls": []
  },
  "551efad5-3d13-4a65-aee2-0fc36cea358c": {
    "mission": {
      "type": "Navigation",
      "orbit": {
        "abbrev": "LEO",
        "name": "Low Earth Orbit"
      },
      "description": "Navigation satellite providing location information for the Tsiklon-B navigation system"
    },
    "rocket_full_name": "Kosmos-3M (11K65M)",
    "pad_lat": 62.883229,
    "pad_lon": 40.868549,
    "mission_patches": [],
    "vid_urls": []
  },
  "6f7cebbb-f236-4025-8d07-9d54a2b961d6": {
    "mission": {
      "type": "Government/Top Secret",
      "orbit": {
        "abbrev": "LEO",
        "name": "Low Earth Orbit"
      },
      "description": "Optical film-return reconnaissance satellite"
    },
    "rocket_full_name": "Soyuz U",
    "pad_lat": 62.9273,
    "pad_lon": 40.45,
    "mission_patches": [],
    "vid_urls": []
  },
  "4b7f7176-db60-4ce9-a76a-eee1b1abb52a": {
    "mission": {
      "type": "Government/Top Secret",
      "orbit": {
        "abbrev": "LEO",
        "name": "Low Earth Orbit"
      },
      "description": "KH-8 Block 4 high resolution reconnaissance satellite."
    },
    "rocket_full_name": "Titan 24B",
    "pad_lat": 34.63312,
    "pad_lon": -120.61584,
    "mission_patches": [],
    "vid_urls": []
  },
  "824f8ff5-198f-439b-93ba-de6acca0561b": {
    "mission": {
      "type": "Earth Science",
      "orbit": {
        "abbrev": "LEO",
        "name": "Low Earth Orbit"
      },
      "description": "Civil version of the military Zenit-2M area surveillance reconnaissance satellite"
    },
    "rocket_full_name": "Soyuz U",
    "pad_lat": 62.941,
    "pad_lon": 40.526806,
    "mission_patches": [],
    "vid_urls": []
  },
  "a8b91992-a064-4b82-b043-e99dca67c602": {
    "mission": {
      "type": "Test Flight",
      "orbit": {
        "abbrev": "LEO",
        "name": "Low Earth Orbit"
      },
      "description": "Reentry capsule of the TKS spacecraft"
    },
    "rocket_full_name": "Proton-K",
    "pad_lat": 46.071001,
    "pad_lon": 62.984999,
    "mission_patches": [],
    "vid_urls": []
  },
  "fd6ee22e-5f92-4907-8df0-8512f7aa11be": {
    "mission": {
      "type": "Government/Top Secret",
      "orbit": {
        "abbrev": "LEO",
        "name": "Low Earth Orbit"
      },
      "description": "Film-return reconnaissance satellite"
    },
    "rocket_full_name": "Soyuz U",
    "pad_lat": 62.92883,
    "pad_lon": 40.457098,
    "mission_patches": [],
    "vid_urls": []
  },
  "2d8d6d70-0994-4bdb-83bd-fdb74d33399c": {
    "mission": {
      "type": "Government/Top Secret",
      "orbit": {
        "abbrev": "LEO",
        "name": "Low Earth Orbit"
      },
      "description": "High-resolution film-return Zenit reconnaissance satellite"
    },
    "rocket_full_name": "Soyuz U",
    "pad_lat": 62.941,
    "pad_lon": 40.526806,
    "mission_patches": [],
    "vid_urls": []
  },
  "393a226e-1c47-4505-9d9a-fdeb4b4c3e4d": {
    "mission": null,
    "rocket_full_name": "Soyuz U",
    "pad_lat": 45.996034,
    "pad_lon": 63.564003,
    "mission_patches": [],
    "vid_urls": []
  },
  "489a3e6d-fca9-4a13-9f7f-4ed1389b12b2": {
    "mission": {
      "type": "Government/Top Secret",
      "orbit": {
        "abbrev": "Direct-GEO",
        "name": "Geostationary Orbit"
      },
      "description": "FLTSATCOM satellite for US Navy, Air Force and presidential communications"
    },
    "rocket_full_name": "Atlas SLV-3D Centaur",
    "pad_lat": 28.4705556,
    "pad_lon": -80.542194,
    "mission_patches": [],
    "vid_urls": []
  },
  "c878aa3d-533e-4238-b584-683016e9a832": {
    "mission": {
      "type": "Government/Top Secret",
      "orbit": {
        "abbrev": "LEO",
        "name": "Low Earth Orbit"
      },
      "description": "Second generation high resolution film-return Yantar reconnaissance satellite"
    },
    "rocket_full_name": "Soyuz U",
    "pad_lat": 62.9273,
    "pad_lon": 40.45,
    "mission_patches": [],
    "vid_urls": []
  },
  "3ed4665e-2bd8-4c77-aa2e-3b58584ff35c": {
    "mission": {
      "type": "Government/Top Secret",
      "orbit": {
        "abbrev": "LEO",
        "name": "Low Earth Orbit"
      },
      "description": "Ocean surveillance satellite using passive ELINT devices"
    },
    "rocket_full_name": "Tsiklon-2",
    "pad_lat": 46.081,
    "pad_lon": 62.929806,
    "mission_patches": [],
    "vid_urls": []
  },
  "017f4a3a-5f3e-4d74-9e18-a10dbecc247e": {
    "mission": {
      "type": "Communications",
      "orbit": {
        "abbrev": "Direct-GEO",
        "name": "Geostationary Orbit"
      },
      "description": "Geostationary communications satellite for military and governmental puposes"
    },
    "rocket_full_name": "Proton-K/DM",
    "pad_lat": 46.0336111,
    "pad_lon": 63.0266949,
    "mission_patches": [],
    "vid_urls": []
  },
  "15b81e31-07bd-4e9c-832a-6f9f304acf22": {
    "mission": {
      "type": "Government/Top Secret",
      "orbit": {
        "abbrev": "LEO",
        "name": "Low Earth Orbit"
      },
      "description": "Optical film-return reconnaissance satellite"
    },
    "rocket_full_name": "Soyuz U",
    "pad_lat": 62.9273,
    "pad_lon": 40.45,
    "mission_patches": [],
    "vid_urls": []
  },
  "36008f53-5c22-42bb-92e8-c375ba2b89b6": {
    "mission": {
      "type": "Government/Top Secret",
      "orbit": {
        "abbrev": "LEO",
        "name": "Low Earth Orbit"
      },
      "description": "Ocean surveillance satellite using passive ELINT devices"
    },
    "rocket_full_name": "Tsiklon-2",
    "pad_lat": 46.081,
    "pad_lon": 62.929806,
    "mission_patches": [],
    "vid_urls": []
  },
  "c3932222-75ca-45f7-8ca3-106592357299": {
    "mission": {
      "type": "Government/Top Secret",
      "orbit": {
        "abbrev": "LEO",
        "name": "Low Earth Orbit"
      },
      "description": "Tselina-D satellites provided detailed observation of radio sources detected by the smaller Tselina-O satellites as part of the Tselina ELINT system."
    },
    "rocket_full_name": "Vostok 8A92M",
    "pad_lat": 62.9273,
    "pad_lon": 40.45,
    "mission_patches": [],
    "vid_urls": []
  },
  "84c37c59-2956-4668-b558-09762893cca8": {
    "mission": {
      "type": "Government/Top Secret",
      "orbit": {
        "abbrev": "Elliptical",
        "name": "Elliptical Orbit"
      },
      "description": "Military communications satellite in a highly elliptic orbit"
    },
    "rocket_full_name": "Molniya-M 2BL",
    "pad_lat": 62.941,
    "pad_lon": 40.526806,
    "mission_patches": [],
    "vid_urls": []
  },
  "4489d33a-8a25-4fd0-9b5e-e11c212566b0": {
    "mission": {
      "type": "Navigation",
      "orbit": {
        "abbrev": "LEO",
        "name": "Low Earth Orbit"
      },
      "description": "Civilian navigation satellite equivalent to the purely military Parus"
    },
    "rocket_full_name": "Kosmos-3M (11K65M)",
    "pad_lat": 62.883229,
    "pad_lon": 40.868549,
    "mission_patches": [],
    "vid_urls": []
  },
  "c587ed55-76e7-4e59-9a33-25bb5f21cbf8": {
    "mission": {
      "type": "Human Exploration",
      "orbit": {
        "abbrev": "LEO",
        "name": "Low Earth Orbit"
      },
      "description": "Soyuz 33 would have been the eighth crew to dock to the Salyut 6 space station and was meant to visit the long-duration resident crew of the station. The mission began on April 10, 1979, 17:34:34 UTC, launching Commander Nikolai Rukavishnikovv and Research Cosmoanut Georgi Ivanov, the first Bulgari…"
    },
    "rocket_full_name": "Soyuz U",
    "pad_lat": 45.92,
    "pad_lon": 63.342,
    "mission_patches": [
      {
        "image_url": "https://thespacedevs-prod.nyc3.digitaloceanspaces.com/media/mission_patch_images/soyuz25203325_mission_patch_20211031042615.png",
        "priority": 10
      },
      {
        "image_url": "https://thespacedevs-prod.nyc3.digitaloceanspaces.com/media/mission_patch_images/soyuz25203325_mission_patch_20211031042616.png",
        "priority": 11
      }
    ],
    "vid_urls": []
  },
  "03a1248c-c307-4b27-80ec-bce8d97c3cd6": {
    "mission": {
      "type": "Navigation",
      "orbit": {
        "abbrev": "LEO",
        "name": "Low Earth Orbit"
      },
      "description": "Navigation satellite providing location information for the Tsiklon-B navigation system"
    },
    "rocket_full_name": "Kosmos-3M (11K65M)",
    "pad_lat": 62.883229,
    "pad_lon": 40.868549,
    "mission_patches": [],
    "vid_urls": []
  },
  "79d90da9-ece4-43fc-b683-395f0863f69a": {
    "mission": {
      "type": "Government/Top Secret",
      "orbit": {
        "abbrev": "LEO",
        "name": "Low Earth Orbit"
      },
      "description": "The soviet Zenit-2M (Gektor, 11F690) was an improved version of the Zenit-2 area surveillance reconnaissance satellite. It was part of the Vostok-based Zenit-family."
    },
    "rocket_full_name": "Soyuz U",
    "pad_lat": 62.941,
    "pad_lon": 40.526806,
    "mission_patches": [],
    "vid_urls": []
  },
  "1b640ed5-60a0-4b2b-9215-87bfdba08b77": {
    "mission": {
      "type": "Navigation",
      "orbit": {
        "abbrev": "LEO",
        "name": "Low Earth Orbit"
      },
      "description": "Navigation satellite providing location information for the Tsiklon-B navigation system"
    },
    "rocket_full_name": "Kosmos-3M (11K65M)",
    "pad_lat": 62.883,
    "pad_lon": 40.869806,
    "mission_patches": [],
    "vid_urls": []
  },
  "aaf907bb-cb7d-410d-a7dc-b377d5497580": {
    "mission": {
      "type": "Government/Top Secret",
      "orbit": {
        "abbrev": "LEO",
        "name": "Low Earth Orbit"
      },
      "description": "Large reconnaissance satellite equipped with four return capsules."
    },
    "rocket_full_name": "Titan IIID",
    "pad_lat": 34.632,
    "pad_lon": -120.611,
    "mission_patches": [],
    "vid_urls": []
  },
  "d6971568-1e61-4722-aa04-b7ccac2c1306": {
    "mission": {
      "type": "Government/Top Secret",
      "orbit": {
        "abbrev": "LEO",
        "name": "Low Earth Orbit"
      },
      "description": "Military communications satellites"
    },
    "rocket_full_name": "Kosmos-3M (11K65M)",
    "pad_lat": 62.883,
    "pad_lon": 40.869806,
    "mission_patches": [],
    "vid_urls": []
  },
  "34b73554-3281-4c62-a348-fbbe1a267fc0": {
    "mission": {
      "type": "Government/Top Secret",
      "orbit": {
        "abbrev": "LEO",
        "name": "Low Earth Orbit"
      },
      "description": "High-resolution film-return Zenit reconnaissance satellite"
    },
    "rocket_full_name": "Soyuz U",
    "pad_lat": 62.941,
    "pad_lon": 40.526806,
    "mission_patches": [],
    "vid_urls": []
  },
  "cbeccd33-2ccd-4144-ad45-e12ae36d3cf7": {
    "mission": null,
    "rocket_full_name": "Soyuz U",
    "pad_lat": 45.996034,
    "pad_lon": 63.564003,
    "mission_patches": [],
    "vid_urls": []
  },
  "dce6590c-b620-4986-ad2d-609f15d65a35": {
    "mission": {
      "type": "Earth Science",
      "orbit": {
        "abbrev": "LEO",
        "name": "Low Earth Orbit"
      },
      "description": "Second generation soviet meteorological satellite"
    },
    "rocket_full_name": "Vostok 8A92M",
    "pad_lat": 62.92883,
    "pad_lon": 40.457098,
    "mission_patches": [],
    "vid_urls": []
  },
  "0bd72d45-ea99-4d2e-808f-2990d676bcb7": {
    "mission": {
      "type": "Earth Science",
      "orbit": {
        "abbrev": "LEO",
        "name": "Low Earth Orbit"
      },
      "description": "Magnetospheric research satellite"
    },
    "rocket_full_name": "Kosmos-3M (11K65M)",
    "pad_lat": 62.883,
    "pad_lon": 40.869806,
    "mission_patches": [],
    "vid_urls": []
  },
  "ab05e396-cd76-4522-b51b-ca63a2eb6040": {
    "mission": {
      "type": "Government/Top Secret",
      "orbit": {
        "abbrev": "LEO",
        "name": "Low Earth Orbit"
      },
      "description": "High-resolution film-return Yantar reconnaissance satellite"
    },
    "rocket_full_name": "Soyuz U",
    "pad_lat": 62.9273,
    "pad_lon": 40.45,
    "mission_patches": [],
    "vid_urls": []
  },
  "27c87f77-330d-45e4-a926-9f2a12d73cd2": {
    "mission": {
      "type": "Human Exploration",
      "orbit": {
        "abbrev": "LEO",
        "name": "Low Earth Orbit"
      },
      "description": "Soyuz 32 was the seventh mission to visit the Salyut 6 space station and carried the EO-3 expedition, which was the third long-duration crew for the station. The mission began on February 25, 1979, 11:53:49 UTC, launching Commander Vladimir Lyakhov and Flight Engineer Valery Ryumin into orbit. They…"
    },
    "rocket_full_name": "Soyuz U",
    "pad_lat": 45.92,
    "pad_lon": 63.342,
    "mission_patches": [
      {
        "image_url": "https://thespacedevs-prod.nyc3.digitaloceanspaces.com/media/mission_patch_images/soyuz25203225_mission_patch_20211031042615.png",
        "priority": 10
      }
    ],
    "vid_urls": []
  },
  "f097fbf2-a1c3-4a1f-ab5a-e3af0e90f102": {
    "mission": {
      "type": "Heliophysics",
      "orbit": {
        "abbrev": "LEO",
        "name": "Low Earth Orbit"
      },
      "description": "Experimental scientific satellite dedicated to solar wind"
    },
    "rocket_full_name": "Atlas F/OIS",
    "pad_lat": 34.644,
    "pad_lon": -120.593,
    "mission_patches": [],
    "vid_urls": []
  },
  "0dbfcb2e-e82a-442e-9ff8-2b7d771ca22b": {
    "mission": {
      "type": "Government/Top Secret",
      "orbit": {
        "abbrev": "LEO",
        "name": "Low Earth Orbit"
      },
      "description": "High-resolution film-return Zenit reconnaissance satellite"
    },
    "rocket_full_name": "Soyuz U",
    "pad_lat": 62.941,
    "pad_lon": 40.526806,
    "mission_patches": [],
    "vid_urls": []
  },
  "c5dc3bde-fdb6-471a-92d9-d64cfdf9364a": {
    "mission": {
      "type": "Communications",
      "orbit": {
        "abbrev": "Direct-GEO",
        "name": "Geostationary Orbit"
      },
      "description": "Ekran was a Soviet series of geostationary satellites which were the first in the world to provide Direct-To-Home TV service."
    },
    "rocket_full_name": "Proton-K/DM",
    "pad_lat": 46.0336111,
    "pad_lon": 63.0266949,
    "mission_patches": [],
    "vid_urls": []
  },
  "9bee604e-9946-4871-94ac-2a037d4b762e": {
    "mission": {
      "type": "Astrophysics",
      "orbit": {
        "abbrev": "LEO",
        "name": "Low Earth Orbit"
      },
      "description": "Japanese astronomical science satellite"
    },
    "rocket_full_name": "Mu-3C",
    "pad_lat": 31.2509794,
    "pad_lon": 131.0821319,
    "mission_patches": [],
    "vid_urls": []
  },
  "71c0bbc5-1516-44f8-ba30-f31a3ee5aa60": {
    "mission": {
      "type": "Earth Science",
      "orbit": {
        "abbrev": "LEO",
        "name": "Low Earth Orbit"
      },
      "description": "Stratospheric research satellite"
    },
    "rocket_full_name": "Scout D-1",
    "pad_lat": 37.8495,
    "pad_lon": -75.4725,
    "mission_patches": [],
    "vid_urls": []
  },
  "619fb661-65ad-4f56-97d5-b053d1b5f632": {
    "mission": {
      "type": "Government/Top Secret",
      "orbit": {
        "abbrev": "LEO",
        "name": "Low Earth Orbit"
      },
      "description": "The soviet Zenit-2M (Gektor, 11F690) was an improved version of the Zenit-2 area surveillance reconnaissance satellite. It was part of the Vostok-based Zenit-family."
    },
    "rocket_full_name": "Soyuz U",
    "pad_lat": 62.941,
    "pad_lon": 40.526806,
    "mission_patches": [],
    "vid_urls": []
  },
  "e858e478-90f2-4c97-aa79-4dc151195411": {
    "mission": {
      "type": "Government/Top Secret",
      "orbit": {
        "abbrev": "LEO",
        "name": "Low Earth Orbit"
      },
      "description": "Tselina-D satellites provided detailed observation of radio sources detected by the smaller Tselina-O satellites as part of the Tselina ELINT system."
    },
    "rocket_full_name": "Vostok 8A92M",
    "pad_lat": 62.92883,
    "pad_lon": 40.457098,
    "mission_patches": [],
    "vid_urls": []
  },
  "04e88782-ba6e-402a-adfa-405300af543d": {
    "mission": {
      "type": "Earth Science",
      "orbit": {
        "abbrev": "LEO",
        "name": "Low Earth Orbit"
      },
      "description": "Experimental ocean-monitoring satellite"
    },
    "rocket_full_name": "Tsiklon-3",
    "pad_lat": 62.9063889,
    "pad_lon": 40.7844727,
    "mission_patches": [],
    "vid_urls": []
  },
  "52e2220a-5ec8-4da7-bf1e-e3c9513746ff": {
    "mission": {
      "type": "Test Target",
      "orbit": {
        "abbrev": "LEO",
        "name": "Low Earth Orbit"
      },
      "description": "Radar calibration satellite"
    },
    "rocket_full_name": "Kosmos-3M (11K65M)",
    "pad_lat": 62.883,
    "pad_lon": 40.869806,
    "mission_patches": [],
    "vid_urls": []
  },
  "62708d44-28a1-4329-be7c-e558f5fb714a": {
    "mission": {
      "type": "Communications",
      "orbit": {
        "abbrev": "Direct-GEO",
        "name": "Geostationary Orbit"
      },
      "description": "Japanese experimental communications satellite"
    },
    "rocket_full_name": "N-I",
    "pad_lat": 30.3993934,
    "pad_lon": 130.9702486,
    "mission_patches": [],
    "vid_urls": []
  },
  "6ed155d4-67bb-4fe9-916a-18fc03e9f905": {
    "mission": null,
    "rocket_full_name": "Soyuz U",
    "pad_lat": 45.996034,
    "pad_lon": 63.564003,
    "mission_patches": [],
    "vid_urls": []
  },
  "a69a3fb3-785d-4a2b-91fb-b9411f569e06": {
    "mission": {
      "type": "Materials Science",
      "orbit": {
        "abbrev": "Elliptical",
        "name": "Elliptical Orbit"
      },
      "description": "Experimental satellite designed to explore the effects of spacecraft charging at high altitudes"
    },
    "rocket_full_name": "Delta 2914",
    "pad_lat": 28.4458,
    "pad_lon": -80.5657,
    "mission_patches": [],
    "vid_urls": []
  },
  "51ac020e-319b-4197-b51f-bc357ca0fedf": {
    "mission": {
      "type": "Government/Top Secret",
      "orbit": {
        "abbrev": "LEO",
        "name": "Low Earth Orbit"
      },
      "description": "High-resolution film-return Zenit reconnaissance satellite"
    },
    "rocket_full_name": "Soyuz U",
    "pad_lat": 62.92883,
    "pad_lon": 40.457098,
    "mission_patches": [],
    "vid_urls": []
  },
  "652942f3-df57-408a-8f45-b6307cb228f9": {
    "mission": {
      "type": "Earth Science",
      "orbit": {
        "abbrev": "SSO",
        "name": "Sun-Synchronous Orbit"
      },
      "description": "Meteor meteorological satellite"
    },
    "rocket_full_name": "Vostok 8A92M",
    "pad_lat": 45.996034,
    "pad_lon": 63.564003,
    "mission_patches": [],
    "vid_urls": []
  },
  "a7a68ca7-1870-4fe7-8509-34cce901202e": {
    "mission": {
      "type": "Communications",
      "orbit": {
        "abbrev": "Elliptical",
        "name": "Elliptical Orbit"
      },
      "description": "Molniya communication satellites operating from a highly elliptical orbit"
    },
    "rocket_full_name": "Molniya-M 2BL",
    "pad_lat": 62.92883,
    "pad_lon": 40.457098,
    "mission_patches": [],
    "vid_urls": []
  },
  "70977500-43b4-407a-9f93-5e4f187e0033": {
    "mission": {
      "type": "Navigation",
      "orbit": {
        "abbrev": "LEO",
        "name": "Low Earth Orbit"
      },
      "description": "Navigation satellite providing location information for the Tsiklon-B navigation system"
    },
    "rocket_full_name": "Kosmos-3M (11K65M)",
    "pad_lat": 62.883229,
    "pad_lon": 40.868549,
    "mission_patches": [],
    "vid_urls": []
  },
  "db73ffc4-542e-43d0-8e1e-21accc6b5360": {
    "mission": {
      "type": "Government/Top Secret",
      "orbit": {
        "abbrev": "LEO",
        "name": "Low Earth Orbit"
      },
      "description": "High-resolution film-return Zenit reconnaissance satellite"
    },
    "rocket_full_name": "Soyuz U",
    "pad_lat": 62.92883,
    "pad_lon": 40.457098,
    "mission_patches": [],
    "vid_urls": []
  },
  "73a63803-5d7b-4deb-aaa9-2c34fe9ba34e": {
    "mission": {
      "type": "Government/Top Secret",
      "orbit": {
        "abbrev": "LEO",
        "name": "Low Earth Orbit"
      },
      "description": "The soviet Zenit-2M (Gektor, 11F690) was an improved version of the Zenit-2 area surveillance reconnaissance satellite. It was part of the Vostok-based Zenit-family."
    },
    "rocket_full_name": "Soyuz U",
    "pad_lat": 62.9273,
    "pad_lon": 40.45,
    "mission_patches": [],
    "vid_urls": []
  },
  "7343c9ac-ad77-4663-9aeb-04a770efe360": {
    "mission": {
      "type": "Government/Top Secret",
      "orbit": {
        "abbrev": "LEO",
        "name": "Low Earth Orbit"
      },
      "description": "Film-return reconnaissance satellite"
    },
    "rocket_full_name": "Soyuz U",
    "pad_lat": 62.941,
    "pad_lon": 40.526806,
    "mission_patches": [],
    "vid_urls": []
  },
  "19af765a-17b1-427c-ab12-c418311fea5b": {
    "mission": {
      "type": "Government/Top Secret",
      "orbit": {
        "abbrev": "LEO",
        "name": "Low Earth Orbit"
      },
      "description": "High-resolution film-return Zenit reconnaissance satellite"
    },
    "rocket_full_name": "Soyuz U",
    "pad_lat": 62.92883,
    "pad_lon": 40.457098,
    "mission_patches": [],
    "vid_urls": []
  },
  "a5a234ff-208a-455f-91a8-58a1789759a7": {
    "mission": {
      "type": "Earth Science",
      "orbit": {
        "abbrev": "LEO",
        "name": "Low Earth Orbit"
      },
      "description": "The Sfera or Geoid series were the first soviet geodetic satellites to improve the accuracy of maps. The development of the satellites started in 1965 at NPO-PM."
    },
    "rocket_full_name": "Kosmos-3M (11K65M)",
    "pad_lat": 62.883,
    "pad_lon": 40.869806,
    "mission_patches": [],
    "vid_urls": []
  },
  "d2f577bb-772e-4c1c-ae7a-0f2648c664aa": {
    "mission": {
      "type": "Astrophysics",
      "orbit": {
        "abbrev": "LEO",
        "name": "Low Earth Orbit"
      },
      "description": "Astrophysics (not confirmed) satellite"
    },
    "rocket_full_name": "Vostok 8A92M",
    "pad_lat": 62.9273,
    "pad_lon": 40.45,
    "mission_patches": [],
    "vid_urls": []
  },
  "81d970c6-8093-4f32-b15a-a13afa829a32": {
    "mission": {
      "type": "Test Target",
      "orbit": {
        "abbrev": "LEO",
        "name": "Low Earth Orbit"
      },
      "description": "Taifun-2 satellite used to release up to 24 subsatellites for radar and sensor calibration"
    },
    "rocket_full_name": "Kosmos-3M (11K65M)",
    "pad_lat": 48.540716,
    "pad_lon": 46.296826,
    "mission_patches": [],
    "vid_urls": []
  },
  "e2379cf6-98f2-4646-8cbc-7dd4f67722a6": {
    "mission": {
      "type": "Navigation",
      "orbit": {
        "abbrev": "LEO",
        "name": "Low Earth Orbit"
      },
      "description": "Navigation satellite providing location information for the Tsiklon-B navigation system"
    },
    "rocket_full_name": "Kosmos-3M (11K65M)",
    "pad_lat": 62.883229,
    "pad_lon": 40.868549,
    "mission_patches": [],
    "vid_urls": []
  },
  "4101f14b-f957-42bc-8247-90614d2d8153": {
    "mission": {
      "type": "Communications",
      "orbit": {
        "abbrev": "Direct-GEO",
        "name": "Geostationary Orbit"
      },
      "description": "Geostationary communications satellite"
    },
    "rocket_full_name": "Proton-K/DM",
    "pad_lat": 46.0336111,
    "pad_lon": 63.0266949,
    "mission_patches": [],
    "vid_urls": []
  },
  "0a57cd12-94d6-4135-93b5-1decd7d7cbb4": {
    "mission": {
      "type": "Government/Top Secret",
      "orbit": {
        "abbrev": "LEO",
        "name": "Low Earth Orbit"
      },
      "description": "Tselina-D satellites provided detailed observation of radio sources detected by the smaller Tselina-O satellites as part of the Tselina ELINT system."
    },
    "rocket_full_name": "Vostok 8A92M",
    "pad_lat": 62.92883,
    "pad_lon": 40.457098,
    "mission_patches": [],
    "vid_urls": []
  },
  "ccbc63a7-9694-4243-aabb-b7acdd0d6c9a": {
    "mission": {
      "type": "Communications",
      "orbit": {
        "abbrev": "Direct-GEO",
        "name": "Geostationary Orbit"
      },
      "description": "Canadian communications satellite"
    },
    "rocket_full_name": "Delta 3914",
    "pad_lat": 28.4472,
    "pad_lon": -80.565,
    "mission_patches": [],
    "vid_urls": []
  },
  "cae352c9-442b-4b8d-9a1f-c0b996bc8514": {
    "mission": {
      "type": "Government/Top Secret",
      "orbit": {
        "abbrev": "LEO",
        "name": "Low Earth Orbit"
      },
      "description": "The Tselina-O (11F616) was one component of two-satellite Tselina ELINT satellite system. Tselina-O provided general ELINT surveillance to be examined in detail by the larger Tselina-D satellites."
    },
    "rocket_full_name": "Kosmos-3M (11K65M)",
    "pad_lat": 62.883,
    "pad_lon": 40.869806,
    "mission_patches": [],
    "vid_urls": []
  },
  "f025bf38-1275-4681-800c-8f3e34a68376": {
    "mission": {
      "type": "Government/Top Secret",
      "orbit": {
        "abbrev": "LEO",
        "name": "Low Earth Orbit"
      },
      "description": "The soviet Zenit-2M (Gektor, 11F690) was an improved version of the Zenit-2 area surveillance reconnaissance satellite. It was part of the Vostok-based Zenit-family."
    },
    "rocket_full_name": "Soyuz U",
    "pad_lat": 62.92883,
    "pad_lon": 40.457098,
    "mission_patches": [],
    "vid_urls": []
  },
  "ac99b928-71cb-4372-a30b-4482a9cdba68": {
    "mission": {
      "type": "Government/Top Secret",
      "orbit": {
        "abbrev": "Direct-GEO",
        "name": "Geostationary Orbit"
      },
      "description": "Satellites designed to provide secure voice and data communications for the US military."
    },
    "rocket_full_name": "Titan IIIC",
    "pad_lat": 28.56194122,
    "pad_lon": -80.57735736,
    "mission_patches": [],
    "vid_urls": []
  },
  "98879866-7f9c-43b9-a24b-bce33fbe0c60": {
    "mission": {
      "type": "Navigation",
      "orbit": {
        "abbrev": "MEO",
        "name": "Medium Earth Orbit"
      },
      "description": "First generation GPS satellite"
    },
    "rocket_full_name": "Atlas F/SVS",
    "pad_lat": 34.64,
    "pad_lon": -120.5895,
    "mission_patches": [],
    "vid_urls": []
  },
  "a423d165-5733-4f5a-9f85-7e8d02ce58b4": {
    "mission": {
      "type": "Government/Top Secret",
      "orbit": {
        "abbrev": "LEO",
        "name": "Low Earth Orbit"
      },
      "description": "The soviet Zenit-2M (Gektor, 11F690) was an improved version of the Zenit-2 area surveillance reconnaissance satellite. It was part of the Vostok-based Zenit-family."
    },
    "rocket_full_name": "Soyuz U",
    "pad_lat": 45.996034,
    "pad_lon": 63.564003,
    "mission_patches": [],
    "vid_urls": []
  },
  "d91bea91-8351-4d94-9531-6598e95bfdd8": {
    "mission": {
      "type": "Government/Top Secret",
      "orbit": {
        "abbrev": "LEO",
        "name": "Low Earth Orbit"
      },
      "description": "High-resolution film-return Zenit reconnaissance satellite"
    },
    "rocket_full_name": "Soyuz U",
    "pad_lat": 62.941,
    "pad_lon": 40.526806,
    "mission_patches": [],
    "vid_urls": []
  },
  "9eb95583-cf36-4f2b-a281-ad8ba49c027d": {
    "mission": {
      "type": "Government/Top Secret",
      "orbit": {
        "abbrev": "LEO",
        "name": "Low Earth Orbit"
      },
      "description": "Military communications satellites"
    },
    "rocket_full_name": "Kosmos-3M (11K65M)",
    "pad_lat": 62.883,
    "pad_lon": 40.869806,
    "mission_patches": [],
    "vid_urls": []
  },
  "b930f535-f1a6-4f80-87ef-c9e717681ebc": {
    "mission": {
      "type": "Government/Top Secret",
      "orbit": {
        "abbrev": "LEO",
        "name": "Low Earth Orbit"
      },
      "description": "Optical film-return reconnaissance satellite"
    },
    "rocket_full_name": "Soyuz U",
    "pad_lat": 62.92883,
    "pad_lon": 40.457098,
    "mission_patches": [],
    "vid_urls": []
  },
  "0f3553e2-021b-4eb7-b6f4-7ee40fa5f8e1": {
    "mission": {
      "type": "Government/Top Secret",
      "orbit": {
        "abbrev": "LEO",
        "name": "Low Earth Orbit"
      },
      "description": "High-resolution film-return Zenit reconnaissance satellite"
    },
    "rocket_full_name": "Soyuz U",
    "pad_lat": 62.92883,
    "pad_lon": 40.457098,
    "mission_patches": [],
    "vid_urls": []
  },
  "0563b3f2-f676-4d3b-a765-9e8f602a8f34": {
    "mission": {
      "type": "Communications",
      "orbit": {
        "abbrev": "Direct-GEO",
        "name": "Geostationary Orbit"
      },
      "description": "Military communications satellite providing links between officials of the various NATO nations."
    },
    "rocket_full_name": "Delta 2914",
    "pad_lat": 28.4458,
    "pad_lon": -80.5657,
    "mission_patches": [],
    "vid_urls": []
  },
  "8fd5cc8b-6bc6-4391-b9ff-2efdd8b5c576": {
    "mission": {
      "type": "Government/Top Secret",
      "orbit": {
        "abbrev": "LEO",
        "name": "Low Earth Orbit"
      },
      "description": "Military communications satellite"
    },
    "rocket_full_name": "Kosmos-3M (11K65M)",
    "pad_lat": 62.883,
    "pad_lon": 40.869806,
    "mission_patches": [],
    "vid_urls": []
  },
  "ec0569d6-d070-4052-a4a1-f5a535c11ca3": {
    "mission": {
      "type": "Government/Top Secret",
      "orbit": {
        "abbrev": "LEO",
        "name": "Low Earth Orbit"
      },
      "description": "High-resolution film-return Zenit reconnaissance satellite"
    },
    "rocket_full_name": "Soyuz U",
    "pad_lat": 62.941,
    "pad_lon": 40.526806,
    "mission_patches": [],
    "vid_urls": []
  },
  "8d565906-1940-4878-a3d7-03568250b349": {
    "mission": {
      "type": "Astrophysics",
      "orbit": {
        "abbrev": "LEO",
        "name": "Low Earth Orbit"
      },
      "description": "Astrophysics research satellite"
    },
    "rocket_full_name": "Atlas SLV-3D Centaur",
    "pad_lat": 28.4705556,
    "pad_lon": -80.542194,
    "mission_patches": [],
    "vid_urls": []
  },
  "5641ff02-fbb3-4b30-bff7-cabe8f5319ee": {
    "mission": {
      "type": "Government/Top Secret",
      "orbit": {
        "abbrev": "LEO",
        "name": "Low Earth Orbit"
      },
      "description": "Film-return reconnaissance satellite"
    },
    "rocket_full_name": "Soyuz U",
    "pad_lat": 62.941,
    "pad_lon": 40.526806,
    "mission_patches": [],
    "vid_urls": []
  },
  "c88f7179-4734-4082-b31b-6a5b40d264e6": {
    "mission": {
      "type": "Heliophysics",
      "orbit": {
        "abbrev": "Elliptical",
        "name": "Elliptical Orbit"
      },
      "description": "Prognoz is a series of research satellites to study solar activity and its influence on Earth's magnetosphere and ionosphere."
    },
    "rocket_full_name": "Molniya-M 2BL",
    "pad_lat": 45.92,
    "pad_lon": 63.342,
    "mission_patches": [],
    "vid_urls": []
  },
  "e682436c-b136-4545-8303-2d42b2a8679c": {
    "mission": {
      "type": "Test Flight",
      "orbit": {
        "abbrev": "LEO",
        "name": "Low Earth Orbit"
      },
      "description": "Mass model of the Meteor-2 meteorological satellite"
    },
    "rocket_full_name": "Tsiklon-3",
    "pad_lat": 62.9063889,
    "pad_lon": 40.7844727,
    "mission_patches": [],
    "vid_urls": []
  },
  "686a9b5e-9340-4eff-bb1f-e0cf5e1cd55e": {
    "mission": {
      "type": "Earth Science",
      "orbit": {
        "abbrev": "LEO",
        "name": "Low Earth Orbit"
      },
      "description": "Scientific satellite dedicated to the ionosphere and magnetosphere"
    },
    "rocket_full_name": "Kosmos-3M (11K65M)",
    "pad_lat": 62.883229,
    "pad_lon": 40.868549,
    "mission_patches": [],
    "vid_urls": []
  },
  "d933ba38-fcb4-41b2-841a-bc7e403bbc68": {
    "mission": {
      "type": "Earth Science",
      "orbit": {
        "abbrev": "PO",
        "name": "Polar Orbit"
      },
      "description": "Research and development satellite in polar orbit"
    },
    "rocket_full_name": "Delta 2910",
    "pad_lat": 34.7556,
    "pad_lon": -120.6224,
    "mission_patches": [],
    "vid_urls": []
  },
  "26a1968e-c866-4657-a697-598b8457b16d": {
    "mission": {
      "type": "Communications",
      "orbit": {
        "abbrev": "Direct-GEO",
        "name": "Geostationary Orbit"
      },
      "description": "Ekran was a Soviet series of geostationary satellites which were the first in the world to provide Direct-To-Home TV service."
    },
    "rocket_full_name": "Proton-K/DM",
    "pad_lat": 46.0336111,
    "pad_lon": 63.0266949,
    "mission_patches": [],
    "vid_urls": []
  },
  "e30f2995-fc11-4b3d-8683-d5361cd752cf": {
    "mission": {
      "type": "Government/Top Secret",
      "orbit": {
        "abbrev": "LEO",
        "name": "Low Earth Orbit"
      },
      "description": "The soviet Zenit-2M (Gektor, 11F690) was an improved version of the Zenit-2 area surveillance reconnaissance satellite. It was part of the Vostok-based Zenit-family."
    },
    "rocket_full_name": "Soyuz U",
    "pad_lat": 62.92883,
    "pad_lon": 40.457098,
    "mission_patches": [],
    "vid_urls": []
  },
  "2a791bd6-2ac5-41ab-9322-1d9c6b67c59c": {
    "mission": {
      "type": "Earth Science",
      "orbit": {
        "abbrev": "SSO",
        "name": "Sun-Synchronous Orbit"
      },
      "description": "Third generation LEO meteorological satellite"
    },
    "rocket_full_name": "SM-65F Atlas",
    "pad_lat": 34.644,
    "pad_lon": -120.593,
    "mission_patches": [],
    "vid_urls": []
  },
  "dd15580c-5b65-4deb-9991-e0e2dcdbe0cb": {
    "mission": {
      "type": "Communications",
      "orbit": {
        "abbrev": "Elliptical",
        "name": "Elliptical Orbit"
      },
      "description": "Molniya communication satellites operating from a highly elliptical orbit"
    },
    "rocket_full_name": "Molniya-M 2BL",
    "pad_lat": 62.9273,
    "pad_lon": 40.45,
    "mission_patches": [],
    "vid_urls": []
  },
  "f0c41afb-9e8b-4a6d-9455-f5be60e2810d": {
    "mission": {
      "type": "Government/Top Secret",
      "orbit": {
        "abbrev": "LEO",
        "name": "Low Earth Orbit"
      },
      "description": "Tselina-D satellites provided detailed observation of radio sources detected by the smaller Tselina-O satellites as part of the Tselina ELINT system."
    },
    "rocket_full_name": "Vostok 8A92M",
    "pad_lat": 62.92883,
    "pad_lon": 40.457098,
    "mission_patches": [],
    "vid_urls": []
  },
  "7fd51375-bf1c-49ee-be61-ebd1fc58c9cf": {
    "mission": {
      "type": "Navigation",
      "orbit": {
        "abbrev": "MEO",
        "name": "Medium Earth Orbit"
      },
      "description": "First generation GPS satellite"
    },
    "rocket_full_name": "Atlas F/SVS",
    "pad_lat": 34.64,
    "pad_lon": -120.5895,
    "mission_patches": [],
    "vid_urls": []
  },
  "6b86dfe1-508f-4f50-8380-35ed59f8678c": {
    "mission": {
      "type": "Government/Top Secret",
      "orbit": {
        "abbrev": "LEO",
        "name": "Low Earth Orbit"
      },
      "description": "High-resolution film-return Zenit reconnaissance satellite"
    },
    "rocket_full_name": "Soyuz U",
    "pad_lat": 62.9273,
    "pad_lon": 40.45,
    "mission_patches": [],
    "vid_urls": []
  },
  "3b926e76-8b00-4693-b750-212e28808448": {
    "mission": {
      "type": "Government/Top Secret",
      "orbit": {
        "abbrev": "LEO",
        "name": "Low Earth Orbit"
      },
      "description": "Military communications satellites"
    },
    "rocket_full_name": "Kosmos-3M (11K65M)",
    "pad_lat": 62.883229,
    "pad_lon": 40.868549,
    "mission_patches": [],
    "vid_urls": []
  },
  "13515e3d-31b7-4673-82ed-0d7bac5f859b": {
    "mission": null,
    "rocket_full_name": "Soyuz U",
    "pad_lat": 45.92,
    "pad_lon": 63.342,
    "mission_patches": [],
    "vid_urls": []
  },
  "f6741a84-a631-417d-bb32-cf02d5daf132": {
    "mission": {
      "type": "Government/Top Secret",
      "orbit": {
        "abbrev": "LEO",
        "name": "Low Earth Orbit"
      },
      "description": "Film-return reconnaissance satellite"
    },
    "rocket_full_name": "Soyuz U",
    "pad_lat": 62.9273,
    "pad_lon": 40.45,
    "mission_patches": [],
    "vid_urls": []
  },
  "2d2541f3-cdde-4652-901b-b3417cd5d8d2": {
    "mission": {
      "type": "Government/Top Secret",
      "orbit": {
        "abbrev": "LEO",
        "name": "Low Earth Orbit"
      },
      "description": "The soviet Zenit-2M (Gektor, 11F690) was an improved version of the Zenit-2 area surveillance reconnaissance satellite. It was part of the Vostok-based Zenit-family."
    },
    "rocket_full_name": "Soyuz U",
    "pad_lat": 62.9273,
    "pad_lon": 40.45,
    "mission_patches": [],
    "vid_urls": []
  },
  "f42d7a3e-d5e0-4f60-b323-3da58334575c": {
    "mission": {
      "type": "Earth Science",
      "orbit": {
        "abbrev": "Elliptical",
        "name": "Elliptical Orbit"
      },
      "description": "Japanese magnetospheric research satellite"
    },
    "rocket_full_name": "Mu-3H",
    "pad_lat": 31.2509794,
    "pad_lon": 131.0821319,
    "mission_patches": [],
    "vid_urls": []
  },
  "cd31d14f-9f3c-4c8c-bb41-8d988ec4f30a": {
    "mission": {
      "type": "Robotic Exploration",
      "orbit": {
        "abbrev": "Venus",
        "name": "Venus Orbit"
      },
      "description": "Venus orbiter and lander"
    },
    "rocket_full_name": "Proton-K/D-1",
    "pad_lat": 46.071001,
    "pad_lon": 62.984999,
    "mission_patches": [],
    "vid_urls": []
  },
  "523bfff5-ed33-4105-a852-7b7d38852530": {
    "mission": {
      "type": "Government/Top Secret",
      "orbit": {
        "abbrev": "LEO",
        "name": "Low Earth Orbit"
      },
      "description": "High-resolution film-return Zenit reconnaissance satellite"
    },
    "rocket_full_name": "Soyuz U",
    "pad_lat": 62.941,
    "pad_lon": 40.526806,
    "mission_patches": [],
    "vid_urls": []
  },
  "35b11d14-275a-43f3-b3f4-c2fefcc8727d": {
    "mission": {
      "type": "Robotic Exploration",
      "orbit": {
        "abbrev": "Venus",
        "name": "Venus Orbit"
      },
      "description": "Venus orbiter and lander"
    },
    "rocket_full_name": "Proton-K/D-1",
    "pad_lat": 46.073997,
    "pad_lon": 62.977999,
    "mission_patches": [],
    "vid_urls": []
  },
  "48f66191-1323-4c6e-89a9-58d5b9ee4618": {
    "mission": {
      "type": "Government/Top Secret",
      "orbit": {
        "abbrev": "Elliptical",
        "name": "Elliptical Orbit"
      },
      "description": "Early warning satellite"
    },
    "rocket_full_name": "Molniya-M 2BL",
    "pad_lat": 62.92883,
    "pad_lon": 40.457098,
    "mission_patches": [],
    "vid_urls": []
  },
  "b5d7cea6-7d18-433f-a8f1-2be8af30ce55": {
    "mission": {
      "type": "Government/Top Secret",
      "orbit": {
        "abbrev": "LEO",
        "name": "Low Earth Orbit"
      },
      "description": "High-resolution film-return Zenit reconnaissance satellite"
    },
    "rocket_full_name": "Soyuz U",
    "pad_lat": 62.92883,
    "pad_lon": 40.457098,
    "mission_patches": [],
    "vid_urls": []
  },
  "ebd27066-16ca-4039-ac18-858aa79201e6": {
    "mission": {
      "type": "Human Exploration",
      "orbit": {
        "abbrev": "LEO",
        "name": "Low Earth Orbit"
      },
      "description": "Soyuz 31 was the sixth mission to visit the Salyut 6 space station and carried the the EP-4 crew, which visited the long-duration Soyuz 29 resident crew. The mission began on August 26, 1978, 14:51:30 UTC, launching Commander Valery Bukovsky and Research Cosmonaut/Flight Engineer Sigmund JÃ¤hn, the…"
    },
    "rocket_full_name": "Soyuz U",
    "pad_lat": 45.92,
    "pad_lon": 63.342,
    "mission_patches": [
      {
        "image_url": "https://thespacedevs-prod.nyc3.digitaloceanspaces.com/media/mission_patch_images/soyuz25203125_mission_patch_20211031042614.png",
        "priority": 10
      },
      {
        "image_url": "https://thespacedevs-prod.nyc3.digitaloceanspaces.com/media/mission_patch_images/soyuz25203125_mission_patch_20211031042614.png",
        "priority": 11
      }
    ],
    "vid_urls": []
  },
  "33b411a8-6f1b-45b6-8397-15c8b807d797": {
    "mission": {
      "type": "Government/Top Secret",
      "orbit": {
        "abbrev": "Elliptical",
        "name": "Elliptical Orbit"
      },
      "description": "Military communications satellite in a highly elliptic orbit"
    },
    "rocket_full_name": "Molniya-M 2BL",
    "pad_lat": 62.92883,
    "pad_lon": 40.457098,
    "mission_patches": [],
    "vid_urls": []
  },
  "312a2127-c72b-4972-99ae-7e88895fc40b": {
    "mission": {
      "type": "Communications",
      "orbit": {
        "abbrev": "Direct-GEO",
        "name": "Geostationary Orbit"
      },
      "description": "Ekran was a Soviet series of geostationary satellites which were the first in the world to provide Direct-To-Home TV service."
    },
    "rocket_full_name": "Proton-K/DM",
    "pad_lat": 46.0336111,
    "pad_lon": 63.0266949,
    "mission_patches": [],
    "vid_urls": []
  },
  "4ff8ecf9-2940-47c5-a206-2d6258d8f9ea": {
    "mission": {
      "type": "Astrophysics",
      "orbit": {
        "abbrev": "L1-point",
        "name": "Heliocentric L1"
      },
      "description": "Astrophysics research satellite. Initially in orbit around L1, then on a heliocentric orbit."
    },
    "rocket_full_name": "Delta 2914",
    "pad_lat": 28.4458,
    "pad_lon": -80.5657,
    "mission_patches": [],
    "vid_urls": []
  },
  "d103114a-629e-4ead-99a3-ba543d0e8149": {
    "mission": {
      "type": "Robotic Exploration",
      "orbit": {
        "abbrev": "Venus flyby",
        "name": "Venus flyby"
      },
      "description": "Bus carrying one large and three small atmospheric probes which landed on Venus"
    },
    "rocket_full_name": "Atlas SLV-3D Centaur",
    "pad_lat": 28.4705556,
    "pad_lon": -80.542194,
    "mission_patches": [],
    "vid_urls": []
  },
  "c3a3c65b-5bd8-4181-8557-b693bf299365": {
    "mission": null,
    "rocket_full_name": "Soyuz U",
    "pad_lat": 45.996034,
    "pad_lon": 63.564003,
    "mission_patches": [],
    "vid_urls": []
  },
  "a3a34196-8398-4cc1-907a-cbaf7a9ce1ca": {
    "mission": {
      "type": "Government/Top Secret",
      "orbit": {
        "abbrev": "LEO",
        "name": "Low Earth Orbit"
      },
      "description": "High-resolution film-return Yantar reconnaissance satellite"
    },
    "rocket_full_name": "Soyuz U",
    "pad_lat": 62.9273,
    "pad_lon": 40.45,
    "mission_patches": [],
    "vid_urls": []
  },
  "66026299-df08-452a-a070-97324a839454": {
    "mission": {
      "type": "Government/Top Secret",
      "orbit": {
        "abbrev": "Elliptical",
        "name": "Elliptical Orbit"
      },
      "description": "Communication relay satellite for US reconnaissance satellites"
    },
    "rocket_full_name": "Titan 34B",
    "pad_lat": 34.63312,
    "pad_lon": -120.61584,
    "mission_patches": [],
    "vid_urls": []
  },
  "eb67c91b-a3f1-409f-af80-b5bad3a61e3c": {
    "mission": {
      "type": "Navigation",
      "orbit": {
        "abbrev": "LEO",
        "name": "Low Earth Orbit"
      },
      "description": "The first soviet navigation system called Tsiklon consisted of Zaliv satellites in low earth orbit."
    },
    "rocket_full_name": "Kosmos-3M (11K65M)",
    "pad_lat": 62.883,
    "pad_lon": 40.869806,
    "mission_patches": [],
    "vid_urls": []
  },
  "73531c9d-87a7-4129-93fc-a707b825482d": {
    "mission": {
      "type": "Communications",
      "orbit": {
        "abbrev": "Direct-GEO",
        "name": "Geostationary Orbit"
      },
      "description": "Geostationary communications satellite for military and governmental puposes"
    },
    "rocket_full_name": "Proton-K/DM",
    "pad_lat": 46.0336111,
    "pad_lon": 63.0266949,
    "mission_patches": [],
    "vid_urls": []
  },
  "70cd8f95-cb4e-410a-b196-8d776286fc71": {
    "mission": {
      "type": "Government/Top Secret",
      "orbit": {
        "abbrev": "Elliptical",
        "name": "Elliptical Orbit"
      },
      "description": "Military communications satellite in a highly elliptic orbit"
    },
    "rocket_full_name": "Molniya-M 2BL",
    "pad_lat": 62.92883,
    "pad_lon": 40.457098,
    "mission_patches": [],
    "vid_urls": []
  },
  "51bfd7a1-39e7-4507-b3d2-1d70054ba86c": {
    "mission": {
      "type": "Astrophysics",
      "orbit": {
        "abbrev": "Direct-GEO",
        "name": "Geostationary Orbit"
      },
      "description": "European geostationary research satellite"
    },
    "rocket_full_name": "Delta 2914",
    "pad_lat": 28.4472,
    "pad_lon": -80.565,
    "mission_patches": [],
    "vid_urls": []
  },
  "c8038de1-a649-449f-84dc-a2550f4c2ced": {
    "mission": null,
    "rocket_full_name": "Soyuz U",
    "pad_lat": 45.996034,
    "pad_lon": 63.564003,
    "mission_patches": [],
    "vid_urls": []
  },
  "b3420416-ba69-4332-a7bd-14b7f42057c7": {
    "mission": {
      "type": "Astrophysics",
      "orbit": {
        "abbrev": "LEO",
        "name": "Low Earth Orbit"
      },
      "description": "Satellite designed to investigate primary cosmic radiation and meteoritic particles."
    },
    "rocket_full_name": "Soyuz U",
    "pad_lat": 45.996034,
    "pad_lon": 63.564003,
    "mission_patches": [],
    "vid_urls": []
  },
  "7ef2d593-7b24-42e4-a2bb-98d8189055f8": {
    "mission": {
      "type": "Communications",
      "orbit": {
        "abbrev": "Direct-GEO",
        "name": "Geostationary Orbit"
      },
      "description": "Geostationary communications satellite built by Hughes Aircraft Company"
    },
    "rocket_full_name": "Atlas SLV-3D Centaur",
    "pad_lat": 28.4705556,
    "pad_lon": -80.542194,
    "mission_patches": [],
    "vid_urls": []
  },
  "46108706-9fb8-495a-87a0-77257f0f990e": {
    "mission": {
      "type": "Test Flight",
      "orbit": {
        "abbrev": "LEO",
        "name": "Low Earth Orbit"
      },
      "description": "Dynamic simulator of the Tselina-D ELINT satellite"
    },
    "rocket_full_name": "Tsiklon-3",
    "pad_lat": 62.9063889,
    "pad_lon": 40.7844727,
    "mission_patches": [],
    "vid_urls": []
  },
  "723442ba-9add-4737-9250-d236ab3ee9d3": {
    "mission": {
      "type": "Government/Top Secret",
      "orbit": {
        "abbrev": "Elliptical",
        "name": "Elliptical Orbit"
      },
      "description": "Early warning satellite"
    },
    "rocket_full_name": "Molniya-M 2BL",
    "pad_lat": 62.9273,
    "pad_lon": 40.45,
    "mission_patches": [],
    "vid_urls": []
  },
  "90d7fc8d-1884-4255-9068-f027a39c4323": {
    "mission": {
      "type": "Human Exploration",
      "orbit": {
        "abbrev": "LEO",
        "name": "Low Earth Orbit"
      },
      "description": "Soyuz 30 was the fifth mission to visit the Salyut 6 space station and carried the the EP-3 crew, which visited the long-duration Soyuz 29 resident crew. The mission began on June 27, 1978, 15:27:21 UTC, launching Commander Pyotr Klimuk and Research Engineer MirosÅ‚aw Hermaszewski, the first Polish…"
    },
    "rocket_full_name": "Soyuz U",
    "pad_lat": 45.92,
    "pad_lon": 63.342,
    "mission_patches": [
      {
        "image_url": "https://thespacedevs-prod.nyc3.digitaloceanspaces.com/media/mission_patch_images/soyuz25203025_mission_patch_20211031042613.png",
        "priority": 10
      },
      {
        "image_url": "https://thespacedevs-prod.nyc3.digitaloceanspaces.com/media/mission_patch_images/soyuz25203025_mission_patch_20211031042613.png",
        "priority": 11
      }
    ],
    "vid_urls": []
  },
  "97ae8f1f-adb8-450f-964c-80b177f7c2b1": {
    "mission": {
      "type": "Earth Science",
      "orbit": {
        "abbrev": "LEO",
        "name": "Low Earth Orbit"
      },
      "description": "Earth observation radar satellite"
    },
    "rocket_full_name": "Atlas F/Agena D",
    "pad_lat": 34.644,
    "pad_lon": -120.593,
    "mission_patches": [],
    "vid_urls": []
  },
  "073a6d18-4bc1-4e12-a84a-33aee4a013a7": {
    "mission": {
      "type": "Government/Top Secret",
      "orbit": {
        "abbrev": "LEO",
        "name": "Low Earth Orbit"
      },
      "description": "Military communications satellite"
    },
    "rocket_full_name": "Kosmos-3M (11K65M)",
    "pad_lat": 62.883229,
    "pad_lon": 40.868549,
    "mission_patches": [],
    "vid_urls": []
  },
  "b4cd084b-c283-4857-81f5-d91ad65ce710": {
    "mission": {
      "type": "Earth Science",
      "orbit": {
        "abbrev": "Direct-GEO",
        "name": "Geostationary Orbit"
      },
      "description": "Geostationary meteorological satellite"
    },
    "rocket_full_name": "Delta 2914",
    "pad_lat": 28.4458,
    "pad_lon": -80.5657,
    "mission_patches": [],
    "vid_urls": []
  },
  "4715d93a-a993-4061-b1f8-cb13e2c4d8da": {
    "mission": {
      "type": "Human Exploration",
      "orbit": {
        "abbrev": "LEO",
        "name": "Low Earth Orbit"
      },
      "description": "Soyuz 29 was the fourth mission to visit the Salyut 6 space station and carried the the EO-2 expedition, which was the second long-duration crew for the station. The mission began on June 15, 1978, 20:16:45 UTC, launching Commander Vladimir Kovalyonok and Flight Engineer Aleksandr Ivanchenkov into…"
    },
    "rocket_full_name": "Soyuz U",
    "pad_lat": 45.92,
    "pad_lon": 63.342,
    "mission_patches": [
      {
        "image_url": "https://thespacedevs-prod.nyc3.digitaloceanspaces.com/media/mission_patch_images/soyuz25202925_mission_patch_20211031042612.png",
        "priority": 10
      }
    ],
    "vid_urls": []
  },
  "edf90ed7-a3e7-4225-b253-2c9736c52b74": {
    "mission": {
      "type": "Government/Top Secret",
      "orbit": {
        "abbrev": "LEO",
        "name": "Low Earth Orbit"
      },
      "description": "KH-11 reconnaissance satellite"
    },
    "rocket_full_name": "Titan IIID",
    "pad_lat": 34.632,
    "pad_lon": -120.611,
    "mission_patches": [],
    "vid_urls": []
  },
  "9732acb7-db6d-47b4-93eb-120a1f347d02": {
    "mission": {
      "type": "Government/Top Secret",
      "orbit": {
        "abbrev": "LEO",
        "name": "Low Earth Orbit"
      },
      "description": "High-resolution film-return Zenit reconnaissance satellite"
    },
    "rocket_full_name": "Soyuz U",
    "pad_lat": 62.9273,
    "pad_lon": 40.45,
    "mission_patches": [],
    "vid_urls": []
  },
  "ec603682-7243-4703-bce0-53fa6ae889fd": {
    "mission": {
      "type": "Government/Top Secret",
      "orbit": {
        "abbrev": "MEO",
        "name": "Medium Earth Orbit"
      },
      "description": "ELINT satellite focussed on communications intelligence"
    },
    "rocket_full_name": "Titan IIIC",
    "pad_lat": 28.56194122,
    "pad_lon": -80.57735736,
    "mission_patches": [],
    "vid_urls": []
  },
  "1000f2c2-d88a-4ebe-8a7b-3c7ef0b64e6c": {
    "mission": {
      "type": "Government/Top Secret",
      "orbit": {
        "abbrev": "LEO",
        "name": "Low Earth Orbit"
      },
      "description": "High-resolution film-return Zenit reconnaissance satellite"
    },
    "rocket_full_name": "Soyuz U",
    "pad_lat": 45.996034,
    "pad_lon": 63.564003,
    "mission_patches": [],
    "vid_urls": []
  },
  "855ee6c0-6357-4d7d-8234-9e39e1ab5c69": {
    "mission": {
      "type": "Government/Top Secret",
      "orbit": {
        "abbrev": "LEO",
        "name": "Low Earth Orbit"
      },
      "description": "Military communications satellites"
    },
    "rocket_full_name": "Kosmos-3M (11K65M)",
    "pad_lat": 62.883229,
    "pad_lon": 40.868549,
    "mission_patches": [],
    "vid_urls": []
  },
  "a7b09461-ef93-4039-9696-68edb6a63dc8": {
    "mission": {
      "type": "Government/Top Secret",
      "orbit": {
        "abbrev": "Elliptical",
        "name": "Elliptical Orbit"
      },
      "description": "Military communications satellite in a highly elliptic orbit"
    },
    "rocket_full_name": "Molniya-M 2BL",
    "pad_lat": 62.9273,
    "pad_lon": 40.45,
    "mission_patches": [],
    "vid_urls": []
  },
  "daa4c6be-763c-4bc8-ba46-c157faf292e6": {
    "mission": {
      "type": "Communications",
      "orbit": {
        "abbrev": "Direct-GEO",
        "name": "Geostationary Orbit"
      },
      "description": "Ekran was a Soviet series of geostationary satellites which were the first in the world to provide Direct-To-Home TV service."
    },
    "rocket_full_name": "Proton-K/DM",
    "pad_lat": 46.0336111,
    "pad_lon": 63.0266949,
    "mission_patches": [],
    "vid_urls": []
  },
  "152ff5b0-d9c3-4213-b1d2-c8266d828507": {
    "mission": {
      "type": "Government/Top Secret",
      "orbit": {
        "abbrev": "LEO",
        "name": "Low Earth Orbit"
      },
      "description": "The soviet Zenit-2M (Gektor, 11F690) was an improved version of the Zenit-2 area surveillance reconnaissance satellite. It was part of the Vostok-based Zenit-family."
    },
    "rocket_full_name": "Soyuz U",
    "pad_lat": 62.9273,
    "pad_lon": 40.45,
    "mission_patches": [],
    "vid_urls": []
  },
  "fa618e92-e7f5-4e1a-b5c8-2e2094a76e9e": {
    "mission": {
      "type": "Navigation",
      "orbit": {
        "abbrev": "LEO",
        "name": "Low Earth Orbit"
      },
      "description": "Navigation satellite providing location information for the Tsiklon-B navigation system"
    },
    "rocket_full_name": "Kosmos-3M (11K65M)",
    "pad_lat": 62.883229,
    "pad_lon": 40.868549,
    "mission_patches": [],
    "vid_urls": []
  },
  "38cca342-a0ee-4604-9a65-cf8e98854662": {
    "mission": {
      "type": "Government/Top Secret",
      "orbit": {
        "abbrev": "LEO",
        "name": "Low Earth Orbit"
      },
      "description": "Film-return reconnaissance satellite"
    },
    "rocket_full_name": "Soyuz U",
    "pad_lat": 62.92883,
    "pad_lon": 40.457098,
    "mission_patches": [],
    "vid_urls": []
  },
  "6a0820d0-2f4d-4a3e-9d00-71d800182982": {
    "mission": {
      "type": "Robotic Exploration",
      "orbit": {
        "abbrev": "Venus",
        "name": "Venus Orbit"
      },
      "description": "Venus orbiter carrying 17 expriments"
    },
    "rocket_full_name": "Atlas SLV-3D Centaur",
    "pad_lat": 28.4705556,
    "pad_lon": -80.542194,
    "mission_patches": [],
    "vid_urls": []
  },
  "d6fe52c8-abad-407b-b11d-63e791ba4b0c": {
    "mission": {
      "type": "Government/Top Secret",
      "orbit": {
        "abbrev": "LEO",
        "name": "Low Earth Orbit"
      },
      "description": "Second generation ASAT satellite"
    },
    "rocket_full_name": "Tsiklon-2",
    "pad_lat": 46.081,
    "pad_lon": 62.929806,
    "mission_patches": [],
    "vid_urls": []
  },
  "9804d158-6092-4696-a32c-e3c86ec62cba": {
    "mission": {
      "type": "Government/Top Secret",
      "orbit": {
        "abbrev": "LEO",
        "name": "Low Earth Orbit"
      },
      "description": "The Tselina-O (11F616) was one component of two-satellite Tselina ELINT satellite system. Tselina-O provided general ELINT surveillance to be examined in detail by the larger Tselina-D satellites."
    },
    "rocket_full_name": "Kosmos-3M (11K65M)",
    "pad_lat": 62.883229,
    "pad_lon": 40.868549,
    "mission_patches": [],
    "vid_urls": []
  },
  "34241aad-a053-41b8-83b4-e5a2c4189762": {
    "mission": {
      "type": "Government/Top Secret",
      "orbit": {
        "abbrev": "LEO",
        "name": "Low Earth Orbit"
      },
      "description": "High-resolution film-return Zenit reconnaissance satellite"
    },
    "rocket_full_name": "Soyuz U",
    "pad_lat": 62.9273,
    "pad_lon": 40.45,
    "mission_patches": [],
    "vid_urls": []
  },
  "deb4ea92-eabf-4c2b-882f-4ae7517f0087": {
    "mission": {
      "type": "Navigation",
      "orbit": {
        "abbrev": "MEO",
        "name": "Medium Earth Orbit"
      },
      "description": "First generation GPS satellite"
    },
    "rocket_full_name": "Atlas F/SVS",
    "pad_lat": 34.64,
    "pad_lon": -120.5895,
    "mission_patches": [],
    "vid_urls": []
  },
  "52492281-3a7b-4cf1-9f61-0e8f2750ee43": {
    "mission": {
      "type": "Test Target",
      "orbit": {
        "abbrev": "LEO",
        "name": "Low Earth Orbit"
      },
      "description": "Radar calibration satellite"
    },
    "rocket_full_name": "Kosmos-3M (11K65M)",
    "pad_lat": 62.883229,
    "pad_lon": 40.868549,
    "mission_patches": [],
    "vid_urls": []
  },
  "6a0d6de8-8737-4591-a1a1-699222756bd4": {
    "mission": {
      "type": "Government/Top Secret",
      "orbit": {
        "abbrev": "LEO",
        "name": "Low Earth Orbit"
      },
      "description": "Tselina-D satellites provided detailed observation of radio sources detected by the smaller Tselina-O satellites as part of the Tselina ELINT system."
    },
    "rocket_full_name": "Vostok 8A92M",
    "pad_lat": 62.92883,
    "pad_lon": 40.457098,
    "mission_patches": [],
    "vid_urls": []
  },
  "ef830b47-5f39-4589-a684-33b3c0d739a1": {
    "mission": {
      "type": "Communications",
      "orbit": {
        "abbrev": "Direct-GEO",
        "name": "Geostationary Orbit"
      },
      "description": "Experimental communications satellite developed by ESRO and operated by ESA"
    },
    "rocket_full_name": "Delta 3914",
    "pad_lat": 28.4472,
    "pad_lon": -80.565,
    "mission_patches": [],
    "vid_urls": []
  },
  "9d28d3e4-7984-4479-bdf9-e7d370cf3e4c": {
    "mission": {
      "type": "Government/Top Secret",
      "orbit": {
        "abbrev": "LEO",
        "name": "Low Earth Orbit"
      },
      "description": "The soviet Zenit-2M (Gektor, 11F690) was an improved version of the Zenit-2 area surveillance reconnaissance satellite. It was part of the Vostok-based Zenit-family."
    },
    "rocket_full_name": "Soyuz U",
    "pad_lat": 62.9273,
    "pad_lon": 40.45,
    "mission_patches": [],
    "vid_urls": []
  },
  "d3cb6e0b-5fc9-4c7b-bd49-2ff94f99e24b": {
    "mission": {
      "type": "Government/Top Secret",
      "orbit": {
        "abbrev": "SSO",
        "name": "Sun-Synchronous Orbit"
      },
      "description": "Military meteorological satellite"
    },
    "rocket_full_name": "Thor DSV-2U",
    "pad_lat": 34.7652778,
    "pad_lon": -120.6244162,
    "mission_patches": [],
    "vid_urls": []
  },
  "faf00bec-b7dd-4eb2-9665-c49cf4225548": {
    "mission": {
      "type": "Earth Science",
      "orbit": {
        "abbrev": "LEO",
        "name": "Low Earth Orbit"
      },
      "description": "Earth surface research satellite"
    },
    "rocket_full_name": "Scout D-1",
    "pad_lat": 34.608,
    "pad_lon": -120.6247,
    "mission_patches": [],
    "vid_urls": []
  },
  "7a54870a-95d5-4a2d-9d74-9e0fd8f6040b": {
    "mission": {
      "type": "Government/Top Secret",
      "orbit": {
        "abbrev": "LEO",
        "name": "Low Earth Orbit"
      },
      "description": "High-resolution film-return Zenit reconnaissance satellite"
    },
    "rocket_full_name": "Soyuz U",
    "pad_lat": 62.92883,
    "pad_lon": 40.457098,
    "mission_patches": [],
    "vid_urls": []
  },
  "e169e7cc-cc0c-4044-9cde-12c9ba2fc8e9": {
    "mission": {
      "type": "Communications",
      "orbit": {
        "abbrev": "Direct-GEO",
        "name": "Geostationary Orbit"
      },
      "description": "First generation Japanese direct broadcasting satellite"
    },
    "rocket_full_name": "Delta 2914",
    "pad_lat": 28.4458,
    "pad_lon": -80.5657,
    "mission_patches": [],
    "vid_urls": []
  },
  "7cbc0ab5-cb32-447a-a4d9-313ec37e2eed": {
    "mission": {
      "type": "Government/Top Secret",
      "orbit": {
        "abbrev": "Direct-GEO",
        "name": "Geostationary Orbit"
      },
      "description": "Geostationary signals intelligence satellite (TELINT)."
    },
    "rocket_full_name": "Atlas SLV-3A Agena D",
    "pad_lat": 28.4859,
    "pad_lon": -80.546594,
    "mission_patches": [],
    "vid_urls": []
  },
  "51acf876-b3e5-43b1-82f8-d87e81dd7bdc": {
    "mission": {
      "type": "Government/Top Secret",
      "orbit": {
        "abbrev": "LEO",
        "name": "Low Earth Orbit"
      },
      "description": "The soviet Zenit-2M (Gektor, 11F690) was an improved version of the Zenit-2 area surveillance reconnaissance satellite. It was part of the Vostok-based Zenit-family."
    },
    "rocket_full_name": "Soyuz U",
    "pad_lat": 45.996034,
    "pad_lon": 63.564003,
    "mission_patches": [],
    "vid_urls": []
  },
  "27186521-7b28-4f4f-8d57-bc0f761fb860": {
    "mission": null,
    "rocket_full_name": "Soyuz U",
    "pad_lat": 45.92,
    "pad_lon": 63.342,
    "mission_patches": [],
    "vid_urls": []
  },
  "64dd8316-5912-4524-b19e-edc9c458308a": {
    "mission": {
      "type": "Communications",
      "orbit": {
        "abbrev": "Direct-GEO",
        "name": "Geostationary Orbit"
      },
      "description": "Geostationary communications satellite developed by Hughes Aircraft Company"
    },
    "rocket_full_name": "Atlas SLV-3D Centaur",
    "pad_lat": 28.4705556,
    "pad_lon": -80.542194,
    "mission_patches": [],
    "vid_urls": []
  },
  "567d437f-0d9a-4ecf-bf98-27646f57173b": {
    "mission": {
      "type": "Navigation",
      "orbit": {
        "abbrev": "LEO",
        "name": "Low Earth Orbit"
      },
      "description": "Civilian navigation satellite equivalent to the purely military Parus"
    },
    "rocket_full_name": "Kosmos-3M (11K65M)",
    "pad_lat": 62.883229,
    "pad_lon": 40.868549,
    "mission_patches": [],
    "vid_urls": []
  },
  "5a9f314a-49bb-42a3-b976-4e6e550d0a04": {
    "mission": {
      "type": "Government/Top Secret",
      "orbit": {
        "abbrev": "LEO",
        "name": "Low Earth Orbit"
      },
      "description": "High-resolution film-return Zenit reconnaissance satellite"
    },
    "rocket_full_name": "Soyuz U",
    "pad_lat": 45.996034,
    "pad_lon": 63.564003,
    "mission_patches": [],
    "vid_urls": []
  },
  "d09f2a5a-4a62-41a4-87c7-2045684d65b8": {
    "mission": {
      "type": "Test Flight",
      "orbit": {
        "abbrev": "LEO",
        "name": "Low Earth Orbit"
      },
      "description": "Reentry capsule of the TKS spacecraft"
    },
    "rocket_full_name": "Proton-K",
    "pad_lat": 46.071001,
    "pad_lon": 62.984999,
    "mission_patches": [],
    "vid_urls": []
  },
  "a6b80787-7b11-47d2-8e89-ecf28eaa742b": {
    "mission": {
      "type": "Navigation",
      "orbit": {
        "abbrev": "LEO",
        "name": "Low Earth Orbit"
      },
      "description": "Navigation satellite providing location information for the Tsiklon-B navigation system"
    },
    "rocket_full_name": "Kosmos-3M (11K65M)",
    "pad_lat": 62.883229,
    "pad_lon": 40.868549,
    "mission_patches": [],
    "vid_urls": []
  },
  "8444243f-6af6-4ace-9863-b5b5c928991b": {
    "mission": {
      "type": "Government/Top Secret",
      "orbit": {
        "abbrev": "Direct-GEO",
        "name": "Geostationary Orbit"
      },
      "description": "Satellites designed to provide secure voice and data communications for the US military."
    },
    "rocket_full_name": "Titan IIIC",
    "pad_lat": 28.56194122,
    "pad_lon": -80.57735736,
    "mission_patches": [],
    "vid_urls": []
  },
  "bdbcbadb-0e6f-4cae-acd8-f4b264a99968": {
    "mission": {
      "type": "Government/Top Secret",
      "orbit": {
        "abbrev": "LEO",
        "name": "Low Earth Orbit"
      },
      "description": "The soviet Zenit-2M (Gektor, 11F690) was an improved version of the Zenit-2 area surveillance reconnaissance satellite. It was part of the Vostok-based Zenit-family."
    },
    "rocket_full_name": "Soyuz U",
    "pad_lat": 62.9273,
    "pad_lon": 40.45,
    "mission_patches": [],
    "vid_urls": []
  },
  "1135ca99-6c3f-43bb-b809-9308d75311b8": {
    "mission": {
      "type": "Government/Top Secret",
      "orbit": {
        "abbrev": "LEO",
        "name": "Low Earth Orbit"
      },
      "description": "Large reconnaissance satellite equipped with four return capsules."
    },
    "rocket_full_name": "Titan IIID",
    "pad_lat": 34.632,
    "pad_lon": -120.611,
    "mission_patches": [],
    "vid_urls": []
  },
  "57e5f615-74bd-4559-bac4-0112837810e4": {
    "mission": {
      "type": "Navigation",
      "orbit": {
        "abbrev": "LEO",
        "name": "Low Earth Orbit"
      },
      "description": "The first soviet navigation system called Tsiklon consisted of Zaliv satellites in low earth orbit."
    },
    "rocket_full_name": "Kosmos-3M (11K65M)",
    "pad_lat": 62.883,
    "pad_lon": 40.869806,
    "mission_patches": [],
    "vid_urls": []
  },
  "f5af8c62-3f1c-4083-aac1-edc70bfcfa94": {
    "mission": {
      "type": "Government/Top Secret",
      "orbit": {
        "abbrev": "LEO",
        "name": "Low Earth Orbit"
      },
      "description": "High-resolution film-return Zenit reconnaissance satellite"
    },
    "rocket_full_name": "Soyuz U",
    "pad_lat": 62.9273,
    "pad_lon": 40.45,
    "mission_patches": [],
    "vid_urls": []
  },
  "9000e50e-c94b-410c-946b-82867f56f49f": {
    "mission": {
      "type": "Earth Science",
      "orbit": {
        "abbrev": "SSO",
        "name": "Sun-Synchronous Orbit"
      },
      "description": "Earth observation satellite"
    },
    "rocket_full_name": "Delta 2910",
    "pad_lat": 34.7556,
    "pad_lon": -120.6224,
    "mission_patches": [],
    "vid_urls": []
  },
  "8a16d38f-2e24-4e9e-8e0a-dab163e9cbce": {
    "mission": {
      "type": "Government/Top Secret",
      "orbit": {
        "abbrev": "LEO",
        "name": "Low Earth Orbit"
      },
      "description": "The soviet Zenit-2M (Gektor, 11F690) was an improved version of the Zenit-2 area surveillance reconnaissance satellite. It was part of the Vostok-based Zenit-family."
    },
    "rocket_full_name": "Soyuz U",
    "pad_lat": 45.996034,
    "pad_lon": 63.564003,
    "mission_patches": [],
    "vid_urls": []
  },
  "d253bc13-2e58-4968-9f8e-6abd0586dfc9": {
    "mission": {
      "type": "Government/Top Secret",
      "orbit": {
        "abbrev": "Elliptical",
        "name": "Elliptical Orbit"
      },
      "description": "Military communications satellite in a highly elliptic orbit"
    },
    "rocket_full_name": "Molniya-M 2BL",
    "pad_lat": 62.9273,
    "pad_lon": 40.45,
    "mission_patches": [],
    "vid_urls": []
  },
  "e1c98771-b043-45e3-92a4-0925bef897f8": {
    "mission": {
      "type": "Human Exploration",
      "orbit": {
        "abbrev": "LEO",
        "name": "Low Earth Orbit"
      },
      "description": "Soyuz 28 was the third mission to visit the Salyut 6 space station. This mission, being the first of the Intercosmos program, had the first ever international crew. The mission began on March 2, 1978, 15:28 UTC, launching Commander Aleksei Gubarev and Research Cosmonaut VladimÃ­r Remek into orbit.…"
    },
    "rocket_full_name": "Soyuz U",
    "pad_lat": 45.92,
    "pad_lon": 63.342,
    "mission_patches": [
      {
        "image_url": "https://thespacedevs-prod.nyc3.digitaloceanspaces.com/media/mission_patch_images/soyuz25202825_mission_patch_20211031042611.png",
        "priority": 10
      },
      {
        "image_url": "https://thespacedevs-prod.nyc3.digitaloceanspaces.com/media/mission_patch_images/soyuz25202825_mission_patch_20211031042612.png",
        "priority": 11
      }
    ],
    "vid_urls": []
  },
  "df56b85d-8d78-45ca-8c42-3f78a590e440": {
    "mission": {
      "type": "Navigation",
      "orbit": {
        "abbrev": "LEO",
        "name": "Low Earth Orbit"
      },
      "description": "Navigation satellite providing location information for the Tsiklon-B navigation system"
    },
    "rocket_full_name": "Kosmos-3M (11K65M)",
    "pad_lat": 62.883,
    "pad_lon": 40.869806,
    "mission_patches": [],
    "vid_urls": []
  },
  "4173b698-684c-4565-ad9c-b3efad788ec0": {
    "mission": {
      "type": "Government/Top Secret",
      "orbit": {
        "abbrev": "Elliptical",
        "name": "Elliptical Orbit"
      },
      "description": "Signal intelligence satellite operating from highly elliptic Molniya-type orbits."
    },
    "rocket_full_name": "Titan 34B",
    "pad_lat": 34.63312,
    "pad_lon": -120.61584,
    "mission_patches": [],
    "vid_urls": []
  },
  "36e6612b-3355-41ac-abe5-3840a0e68f4c": {
    "mission": {
      "type": "Navigation",
      "orbit": {
        "abbrev": "MEO",
        "name": "Medium Earth Orbit"
      },
      "description": "First generation GPS satellite"
    },
    "rocket_full_name": "Atlas F/SVS",
    "pad_lat": 34.64,
    "pad_lon": -120.5895,
    "mission_patches": [],
    "vid_urls": []
  },
  "0916c54c-f26b-4420-ba74-b69583494933": {
    "mission": {
      "type": "Government/Top Secret",
      "orbit": {
        "abbrev": "LEO",
        "name": "Low Earth Orbit"
      },
      "description": "Military communications satellite"
    },
    "rocket_full_name": "Kosmos-3M (11K65M)",
    "pad_lat": 62.883,
    "pad_lon": 40.869806,
    "mission_patches": [],
    "vid_urls": []
  },
  "13075202-835b-44ff-be62-0229d77714b7": {
    "mission": {
      "type": "Earth Science",
      "orbit": {
        "abbrev": "LEO",
        "name": "Low Earth Orbit"
      },
      "description": "Japanese ionospheric research satellite"
    },
    "rocket_full_name": "N-I",
    "pad_lat": 30.3993934,
    "pad_lon": 130.9702486,
    "mission_patches": [],
    "vid_urls": []
  },
  "6264db6b-4ec5-4b20-bb0c-58480f68df13": {
    "mission": {
      "type": "Government/Top Secret",
      "orbit": {
        "abbrev": "LEO",
        "name": "Low Earth Orbit"
      },
      "description": "High-resolution film-return Zenit reconnaissance satellite"
    },
    "rocket_full_name": "Soyuz U",
    "pad_lat": 45.996034,
    "pad_lon": 63.564003,
    "mission_patches": [],
    "vid_urls": []
  },
  "4c1a7759-c39a-46b1-96fc-0e7258184233": {
    "mission": {
      "type": "Government/Top Secret",
      "orbit": {
        "abbrev": "Direct-GEO",
        "name": "Geostationary Orbit"
      },
      "description": "FLTSATCOM satellite for US Navy, Air Force and presidential communications"
    },
    "rocket_full_name": "Atlas SLV-3D Centaur",
    "pad_lat": 28.4705556,
    "pad_lon": -80.542194,
    "mission_patches": [],
    "vid_urls": []
  },
  "951c8ae6-adcb-4e07-929d-9301dbf86d7b": {
    "mission": {
      "type": "Government/Top Secret",
      "orbit": {
        "abbrev": "LEO",
        "name": "Low Earth Orbit"
      },
      "description": "Film-return reconnaissance satellite"
    },
    "rocket_full_name": "Soyuz U",
    "pad_lat": 62.9273,
    "pad_lon": 40.45,
    "mission_patches": [],
    "vid_urls": []
  },
  "d5a58f14-4810-4e33-8bdb-443bdaf72149": {
    "mission": {
      "type": "Earth Science",
      "orbit": {
        "abbrev": "Elliptical",
        "name": "Elliptical Orbit"
      },
      "description": "Japanese magnetospheric research satellite"
    },
    "rocket_full_name": "Mu-3H",
    "pad_lat": 31.2509794,
    "pad_lon": 131.0821319,
    "mission_patches": [],
    "vid_urls": []
  },
  "78f6eba5-b882-446e-a1db-2a29bf9c4655": {
    "mission": {
      "type": "Government/Top Secret",
      "orbit": {
        "abbrev": "LEO",
        "name": "Low Earth Orbit"
      },
      "description": "High-resolution film-return Zenit reconnaissance satellite"
    },
    "rocket_full_name": "Soyuz U",
    "pad_lat": 62.92883,
    "pad_lon": 40.457098,
    "mission_patches": [],
    "vid_urls": []
  },
  "1fa9d6c1-309e-4181-85e3-53833b9bc76c": {
    "mission": {
      "type": "Astrophysics",
      "orbit": {
        "abbrev": "MEO",
        "name": "Medium Earth Orbit"
      },
      "description": "UV astronomical obsrvatory used as an international facility"
    },
    "rocket_full_name": "Delta 2914",
    "pad_lat": 28.4472,
    "pad_lon": -80.565,
    "mission_patches": [],
    "vid_urls": []
  },
  "b7cbba65-b788-466e-914a-13d3965a0353": {
    "mission": {
      "type": "Government/Top Secret",
      "orbit": {
        "abbrev": "LEO",
        "name": "Low Earth Orbit"
      },
      "description": "Chinese Fanhui Shi Weixing recoverable reconnaissance satellite"
    },
    "rocket_full_name": "Long March 2A",
    "pad_lat": 41.306143,
    "pad_lon": 100.313229,
    "mission_patches": [],
    "vid_urls": []
  },
  "9238d382-8da6-4888-9860-eac43dc392e4": {
    "mission": {
      "type": "Government/Top Secret",
      "orbit": {
        "abbrev": "LEO",
        "name": "Low Earth Orbit"
      },
      "description": "High-resolution film-return Zenit reconnaissance satellite"
    },
    "rocket_full_name": "Soyuz U",
    "pad_lat": 45.996034,
    "pad_lon": 63.564003,
    "mission_patches": [],
    "vid_urls": []
  },
  "07a61973-fc3b-47dc-bcf9-a068bda61605": {
    "mission": {
      "type": "Communications",
      "orbit": {
        "abbrev": "Elliptical",
        "name": "Elliptical Orbit"
      },
      "description": "Molniya communication satellites operating from a highly elliptical orbit"
    },
    "rocket_full_name": "Molniya-M 2BL",
    "pad_lat": 62.9273,
    "pad_lon": 40.45,
    "mission_patches": [],
    "vid_urls": []
  },
  "d87fa209-b97b-4836-8879-d775901a8e2b": {
    "mission": null,
    "rocket_full_name": "Soyuz U",
    "pad_lat": 45.996034,
    "pad_lon": 63.564003,
    "mission_patches": [],
    "vid_urls": []
  },
  "62dd2894-8939-443b-a49d-e994779904bf": {
    "mission": {
      "type": "Navigation",
      "orbit": {
        "abbrev": "LEO",
        "name": "Low Earth Orbit"
      },
      "description": "Navigation satellite providing location information for the Tsiklon-B navigation system"
    },
    "rocket_full_name": "Kosmos-3M (11K65M)",
    "pad_lat": 62.883229,
    "pad_lon": 40.868549,
    "mission_patches": [],
    "vid_urls": []
  },
  "c2c643e1-9f46-4425-af67-a166f58877a1": {
    "mission": {
      "type": "Government/Top Secret",
      "orbit": {
        "abbrev": "LEO",
        "name": "Low Earth Orbit"
      },
      "description": "The soviet Zenit-2M (Gektor, 11F690) was an improved version of the Zenit-2 area surveillance reconnaissance satellite. It was part of the Vostok-based Zenit-family."
    },